{"\u9023\u6c5f\u7e23":{"\u5357\u7aff\u9109":{"\u9109\u93ae\u9810\u5831":{"\u9023\u6c5f\u7e23\u5357\u7aff\u9109":{"ID":"09007010","type":"\u9109\u93ae\u9810\u5831","NAME":"\u5357\u7aff\u9109","county":"\u9023\u6c5f\u7e23","town":"\u5357\u7aff\u9109","longitude":"119.92930","latitude":"26.15420"}}},"\u5317\u7aff\u9109":{"\u9109\u93ae\u9810\u5831":{"\u9023\u6c5f\u7e23\u5317\u7aff\u9109":{"ID":"09007020","type":"\u9109\u93ae\u9810\u5831","NAME":"\u5317\u7aff\u9109","county":"\u9023\u6c5f\u7e23","town":"\u5317\u7aff\u9109","longitude":"119.98852","latitude":"26.22692"}}},"\u8392\u5149\u9109":{"\u9109\u93ae\u9810\u5831":{"\u9023\u6c5f\u7e23\u8392\u5149\u9109":{"ID":"09007030","type":"\u9109\u93ae\u9810\u5831","NAME":"\u8392\u5149\u9109","county":"\u9023\u6c5f\u7e23","town":"\u8392\u5149\u9109","longitude":"119.92459","latitude":"25.97355"}}},"\u6771\u5f15\u9109":{"\u9109\u93ae\u9810\u5831":{"\u9023\u6c5f\u7e23\u6771\u5f15\u9109":{"ID":"09007040","type":"\u9109\u93ae\u9810\u5831","NAME":"\u6771\u5f15\u9109","county":"\u9023\u6c5f\u7e23","town":"\u6771\u5f15\u9109","longitude":"120.48158","latitude":"26.36915"}}}},"\u91d1\u9580\u7e23":{"\u91d1\u57ce\u93ae":{"\u9109\u93ae\u9810\u5831":{"\u91d1\u9580\u7e23\u91d1\u57ce\u93ae":{"ID":"09020010","type":"\u9109\u93ae\u9810\u5831","NAME":"\u91d1\u57ce\u93ae","county":"\u91d1\u9580\u7e23","town":"\u91d1\u57ce\u93ae","longitude":"118.31243","latitude":"24.43436"}}},"\u91d1\u6c99\u93ae":{"\u9109\u93ae\u9810\u5831":{"\u91d1\u9580\u7e23\u91d1\u6c99\u93ae":{"ID":"09020020","type":"\u9109\u93ae\u9810\u5831","NAME":"\u91d1\u6c99\u93ae","county":"\u91d1\u9580\u7e23","town":"\u91d1\u6c99\u93ae","longitude":"118.40496","latitude":"24.49056"}}},"\u91d1\u6e56\u93ae":{"\u9109\u93ae\u9810\u5831":{"\u91d1\u9580\u7e23\u91d1\u6e56\u93ae":{"ID":"09020030","type":"\u9109\u93ae\u9810\u5831","NAME":"\u91d1\u6e56\u93ae","county":"\u91d1\u9580\u7e23","town":"\u91d1\u6e56\u93ae","longitude":"118.40891","latitude":"24.44304"}}},"\u91d1\u5be7\u9109":{"\u9109\u93ae\u9810\u5831":{"\u91d1\u9580\u7e23\u91d1\u5be7\u9109":{"ID":"09020040","type":"\u9109\u93ae\u9810\u5831","NAME":"\u91d1\u5be7\u9109","county":"\u91d1\u9580\u7e23","town":"\u91d1\u5be7\u9109","longitude":"118.32670","latitude":"24.45256"}}},"\u70c8\u5dbc\u9109":{"\u9109\u93ae\u9810\u5831":{"\u91d1\u9580\u7e23\u70c8\u5dbc\u9109":{"ID":"09020050","type":"\u9109\u93ae\u9810\u5831","NAME":"\u70c8\u5dbc\u9109","county":"\u91d1\u9580\u7e23","town":"\u70c8\u5dbc\u9109","longitude":"118.23633","latitude":"24.43115"}}},"\u70cf\u5775\u9109":{"\u9109\u93ae\u9810\u5831":{"\u91d1\u9580\u7e23\u70cf\u5775\u9109":{"ID":"09020060","type":"\u9109\u93ae\u9810\u5831","NAME":"\u70cf\u5775\u9109","county":"\u91d1\u9580\u7e23","town":"\u70cf\u5775\u9109","longitude":"119.44598","latitude":"24.99284"}}}},"\u5b9c\u862d\u7e23":{"\u5b9c\u862d\u5e02":{"\u9109\u93ae\u9810\u5831":{"\u5b9c\u862d\u7e23\u5b9c\u862d\u5e02":{"ID":"10002010","type":"\u9109\u93ae\u9810\u5831","NAME":"\u5b9c\u862d\u5e02","county":"\u5b9c\u862d\u7e23","town":"\u5b9c\u862d\u5e02","longitude":"121.74508","latitude":"24.75371"}}},"\u7f85\u6771\u93ae":{"\u9109\u93ae\u9810\u5831":{"\u5b9c\u862d\u7e23\u7f85\u6771\u93ae":{"ID":"10002020","type":"\u9109\u93ae\u9810\u5831","NAME":"\u7f85\u6771\u93ae","county":"\u5b9c\u862d\u7e23","town":"\u7f85\u6771\u93ae","longitude":"121.75876","latitude":"24.67867"}}},"\u8607\u6fb3\u93ae":{"\u9109\u93ae\u9810\u5831":{"\u5b9c\u862d\u7e23\u8607\u6fb3\u93ae":{"ID":"10002030","type":"\u9109\u93ae\u9810\u5831","NAME":"\u8607\u6fb3\u93ae","county":"\u5b9c\u862d\u7e23","town":"\u8607\u6fb3\u93ae","longitude":"121.83384","latitude":"24.59623"}}},"\u982d\u57ce\u93ae":{"\u9109\u93ae\u9810\u5831":{"\u5b9c\u862d\u7e23\u982d\u57ce\u93ae":{"ID":"10002040","type":"\u9109\u93ae\u9810\u5831","NAME":"\u982d\u57ce\u93ae","county":"\u5b9c\u862d\u7e23","town":"\u982d\u57ce\u93ae","longitude":"121.81526","latitude":"24.86107"}}},"\u7901\u6eaa\u9109":{"\u9109\u93ae\u9810\u5831":{"\u5b9c\u862d\u7e23\u7901\u6eaa\u9109":{"ID":"10002050","type":"\u9109\u93ae\u9810\u5831","NAME":"\u7901\u6eaa\u9109","county":"\u5b9c\u862d\u7e23","town":"\u7901\u6eaa\u9109","longitude":"121.76317","latitude":"24.82532"}}},"\u58ef\u570d\u9109":{"\u9109\u93ae\u9810\u5831":{"\u5b9c\u862d\u7e23\u58ef\u570d\u9109":{"ID":"10002060","type":"\u9109\u93ae\u9810\u5831","NAME":"\u58ef\u570d\u9109","county":"\u5b9c\u862d\u7e23","town":"\u58ef\u570d\u9109","longitude":"121.77741","latitude":"24.74871"}},"\u4f5c\u7269\u5c08\u5340\u9810\u5831":{"\u72c0\u5712\u9109-\u6c34\u7a3b":{"ID":"L109","type":"\u4f5c\u7269\u5c08\u5340\u9810\u5831","NAME":"\u72c0\u5712\u9109-\u6c34\u7a3b","county":"\u5b9c\u862d\u7e23","town":"\u58ef\u570d\u9109","longitude":"121.77741","latitude":"24.74871"}}},"\u54e1\u5c71\u9109":{"\u9109\u93ae\u9810\u5831":{"\u5b9c\u862d\u7e23\u54e1\u5c71\u9109":{"ID":"10002070","type":"\u9109\u93ae\u9810\u5831","NAME":"\u54e1\u5c71\u9109","county":"\u5b9c\u862d\u7e23","town":"\u54e1\u5c71\u9109","longitude":"121.71512","latitude":"24.74527"}},"\u4f5c\u7269\u5c08\u5340\u9810\u5831":{"\u54e1\u5c71\u9109-\u7d05\u9f8d\u679c":{"ID":"L111","type":"\u4f5c\u7269\u5c08\u5340\u9810\u5831","NAME":"\u54e1\u5c71\u9109-\u7d05\u9f8d\u679c","county":"\u5b9c\u862d\u7e23","town":"\u54e1\u5c71\u9109","longitude":"121.71512","latitude":"24.74527"}}},"\u51ac\u5c71\u9109":{"\u9109\u93ae\u9810\u5831":{"\u5b9c\u862d\u7e23\u51ac\u5c71\u9109":{"ID":"10002080","type":"\u9109\u93ae\u9810\u5831","NAME":"\u51ac\u5c71\u9109","county":"\u5b9c\u862d\u7e23","town":"\u51ac\u5c71\u9109","longitude":"121.78401","latitude":"24.63632"}}},"\u4e94\u7d50\u9109":{"\u9109\u93ae\u9810\u5831":{"\u5b9c\u862d\u7e23\u4e94\u7d50\u9109":{"ID":"10002090","type":"\u9109\u93ae\u9810\u5831","NAME":"\u4e94\u7d50\u9109","county":"\u5b9c\u862d\u7e23","town":"\u4e94\u7d50\u9109","longitude":"121.79009","latitude":"24.68657"}}},"\u4e09\u661f\u9109":{"\u9109\u93ae\u9810\u5831":{"\u5b9c\u862d\u7e23\u4e09\u661f\u9109":{"ID":"10002100","type":"\u9109\u93ae\u9810\u5831","NAME":"\u4e09\u661f\u9109","county":"\u5b9c\u862d\u7e23","town":"\u4e09\u661f\u9109","longitude":"121.64567","latitude":"24.66737"}},"\u4f5c\u7269\u5c08\u5340\u9810\u5831":{"\u4e09\u661f\u9109-\u68a8":{"ID":"L010","type":"\u4f5c\u7269\u5c08\u5340\u9810\u5831","NAME":"\u4e09\u661f\u9109-\u68a8","county":"\u5b9c\u862d\u7e23","town":"\u4e09\u661f\u9109","longitude":"121.64567","latitude":"24.66737"},"\u4e09\u661f\u9109-\u8525":{"ID":"L028","type":"\u4f5c\u7269\u5c08\u5340\u9810\u5831","NAME":"\u4e09\u661f\u9109-\u8525","county":"\u5b9c\u862d\u7e23","town":"\u4e09\u661f\u9109","longitude":"121.64567","latitude":"24.66737"}}},"\u5927\u540c\u9109":{"\u9109\u93ae\u9810\u5831":{"\u5b9c\u862d\u7e23\u5927\u540c\u9109":{"ID":"10002110","type":"\u9109\u93ae\u9810\u5831","NAME":"\u5927\u540c\u9109","county":"\u5b9c\u862d\u7e23","town":"\u5927\u540c\u9109","longitude":"121.60106","latitude":"24.67902"}},"\u4f5c\u7269\u5c08\u5340\u9810\u5831":{"\u5927\u540c\u9109-\u7518\u85cd":{"ID":"L080","type":"\u4f5c\u7269\u5c08\u5340\u9810\u5831","NAME":"\u5927\u540c\u9109-\u7518\u85cd","county":"\u5b9c\u862d\u7e23","town":"\u5927\u540c\u9109","longitude":"121.60106","latitude":"24.67902"}}},"\u5357\u6fb3\u9109":{"\u9109\u93ae\u9810\u5831":{"\u5b9c\u862d\u7e23\u5357\u6fb3\u9109":{"ID":"10002120","type":"\u9109\u93ae\u9810\u5831","NAME":"\u5357\u6fb3\u9109","county":"\u5b9c\u862d\u7e23","town":"\u5357\u6fb3\u9109","longitude":"121.79591","latitude":"24.46788"}}}},"\u65b0\u7af9\u7e23":{"\u7af9\u5317\u5e02":{"\u9109\u93ae\u9810\u5831":{"\u65b0\u7af9\u7e23\u7af9\u5317\u5e02":{"ID":"10004010","type":"\u9109\u93ae\u9810\u5831","NAME":"\u7af9\u5317\u5e02","county":"\u65b0\u7af9\u7e23","town":"\u7af9\u5317\u5e02","longitude":"120.99570","latitude":"24.84125"}}},"\u7af9\u6771\u93ae":{"\u9109\u93ae\u9810\u5831":{"\u65b0\u7af9\u7e23\u7af9\u6771\u93ae":{"ID":"10004020","type":"\u9109\u93ae\u9810\u5831","NAME":"\u7af9\u6771\u93ae","county":"\u65b0\u7af9\u7e23","town":"\u7af9\u6771\u93ae","longitude":"121.08354","latitude":"24.73850"}}},"\u65b0\u57d4\u93ae":{"\u9109\u93ae\u9810\u5831":{"\u65b0\u7af9\u7e23\u65b0\u57d4\u93ae":{"ID":"10004030","type":"\u9109\u93ae\u9810\u5831","NAME":"\u65b0\u57d4\u93ae","county":"\u65b0\u7af9\u7e23","town":"\u65b0\u57d4\u93ae","longitude":"121.06309","latitude":"24.82966"}},"\u4f5c\u7269\u5c08\u5340\u9810\u5831":{"\u65b0\u57d4\u93ae-\u692a\u67d1":{"ID":"L098","type":"\u4f5c\u7269\u5c08\u5340\u9810\u5831","NAME":"\u65b0\u57d4\u93ae-\u692a\u67d1","county":"\u65b0\u7af9\u7e23","town":"\u65b0\u57d4\u93ae","longitude":"121.06309","latitude":"24.82966"}}},"\u95dc\u897f\u93ae":{"\u9109\u93ae\u9810\u5831":{"\u65b0\u7af9\u7e23\u95dc\u897f\u93ae":{"ID":"10004040","type":"\u9109\u93ae\u9810\u5831","NAME":"\u95dc\u897f\u93ae","county":"\u65b0\u7af9\u7e23","town":"\u95dc\u897f\u93ae","longitude":"121.16761","latitude":"24.79417"}}},"\u6e56\u53e3\u9109":{"\u9109\u93ae\u9810\u5831":{"\u65b0\u7af9\u7e23\u6e56\u53e3\u9109":{"ID":"10004050","type":"\u9109\u93ae\u9810\u5831","NAME":"\u6e56\u53e3\u9109","county":"\u65b0\u7af9\u7e23","town":"\u6e56\u53e3\u9109","longitude":"121.03980","latitude":"24.90269"}}},"\u65b0\u8c50\u9109":{"\u9109\u93ae\u9810\u5831":{"\u65b0\u7af9\u7e23\u65b0\u8c50\u9109":{"ID":"10004060","type":"\u9109\u93ae\u9810\u5831","NAME":"\u65b0\u8c50\u9109","county":"\u65b0\u7af9\u7e23","town":"\u65b0\u8c50\u9109","longitude":"120.97725","latitude":"24.90253"}},"\u4f5c\u7269\u5c08\u5340\u9810\u5831":{"\u65b0\u8c50\u9109-\u6c34\u7a3b":{"ID":"L058","type":"\u4f5c\u7269\u5c08\u5340\u9810\u5831","NAME":"\u65b0\u8c50\u9109-\u6c34\u7a3b","county":"\u65b0\u7af9\u7e23","town":"\u65b0\u8c50\u9109","longitude":"120.97725","latitude":"24.90253"}}},"\u828e\u6797\u9109":{"\u9109\u93ae\u9810\u5831":{"\u65b0\u7af9\u7e23\u828e\u6797\u9109":{"ID":"10004070","type":"\u9109\u93ae\u9810\u5831","NAME":"\u828e\u6797\u9109","county":"\u65b0\u7af9\u7e23","town":"\u828e\u6797\u9109","longitude":"121.07366","latitude":"24.77509"}}},"\u6a6b\u5c71\u9109":{"\u9109\u93ae\u9810\u5831":{"\u65b0\u7af9\u7e23\u6a6b\u5c71\u9109":{"ID":"10004080","type":"\u9109\u93ae\u9810\u5831","NAME":"\u6a6b\u5c71\u9109","county":"\u65b0\u7af9\u7e23","town":"\u6a6b\u5c71\u9109","longitude":"121.13329","latitude":"24.71860"}}},"\u5317\u57d4\u9109":{"\u9109\u93ae\u9810\u5831":{"\u65b0\u7af9\u7e23\u5317\u57d4\u9109":{"ID":"10004090","type":"\u9109\u93ae\u9810\u5831","NAME":"\u5317\u57d4\u9109","county":"\u65b0\u7af9\u7e23","town":"\u5317\u57d4\u9109","longitude":"121.04823","latitude":"24.70373"}},"\u4f5c\u7269\u5c08\u5340\u9810\u5831":{"\u5317\u57d4\u9109-\u8336":{"ID":"L079","type":"\u4f5c\u7269\u5c08\u5340\u9810\u5831","NAME":"\u5317\u57d4\u9109-\u8336","county":"\u65b0\u7af9\u7e23","town":"\u5317\u57d4\u9109","longitude":"121.04823","latitude":"24.70373"}}},"\u5bf6\u5c71\u9109":{"\u9109\u93ae\u9810\u5831":{"\u65b0\u7af9\u7e23\u5bf6\u5c71\u9109":{"ID":"10004100","type":"\u9109\u93ae\u9810\u5831","NAME":"\u5bf6\u5c71\u9109","county":"\u65b0\u7af9\u7e23","town":"\u5bf6\u5c71\u9109","longitude":"120.98297","latitude":"24.76737"}},"\u4f5c\u7269\u5c08\u5340\u9810\u5831":{"\u5bf6\u5c71\u9109-\u6876\u67d1":{"ID":"L084","type":"\u4f5c\u7269\u5c08\u5340\u9810\u5831","NAME":"\u5bf6\u5c71\u9109-\u6876\u67d1","county":"\u65b0\u7af9\u7e23","town":"\u5bf6\u5c71\u9109","longitude":"120.98297","latitude":"24.76737"}}},"\u5ce8\u7709\u9109":{"\u9109\u93ae\u9810\u5831":{"\u65b0\u7af9\u7e23\u5ce8\u7709\u9109":{"ID":"10004110","type":"\u9109\u93ae\u9810\u5831","NAME":"\u5ce8\u7709\u9109","county":"\u65b0\u7af9\u7e23","town":"\u5ce8\u7709\u9109","longitude":"121.01137","latitude":"24.69053"}},"\u4f5c\u7269\u5c08\u5340\u9810\u5831":{"\u5ce8\u7709\u9109-\u6876\u67d1":{"ID":"L011","type":"\u4f5c\u7269\u5c08\u5340\u9810\u5831","NAME":"\u5ce8\u7709\u9109-\u6876\u67d1","county":"\u65b0\u7af9\u7e23","town":"\u5ce8\u7709\u9109","longitude":"121.01137","latitude":"24.69053"}}},"\u5c16\u77f3\u9109":{"\u9109\u93ae\u9810\u5831":{"\u65b0\u7af9\u7e23\u5c16\u77f3\u9109":{"ID":"10004120","type":"\u9109\u93ae\u9810\u5831","NAME":"\u5c16\u77f3\u9109","county":"\u65b0\u7af9\u7e23","town":"\u5c16\u77f3\u9109","longitude":"121.19328","latitude":"24.70700"}}},"\u4e94\u5cf0\u9109":{"\u9109\u93ae\u9810\u5831":{"\u65b0\u7af9\u7e23\u4e94\u5cf0\u9109":{"ID":"10004130","type":"\u9109\u93ae\u9810\u5831","NAME":"\u4e94\u5cf0\u9109","county":"\u65b0\u7af9\u7e23","town":"\u4e94\u5cf0\u9109","longitude":"121.11136","latitude":"24.63392"}}}},"\u82d7\u6817\u7e23":{"\u82d7\u6817\u5e02":{"\u9109\u93ae\u9810\u5831":{"\u82d7\u6817\u7e23\u82d7\u6817\u5e02":{"ID":"10005010","type":"\u9109\u93ae\u9810\u5831","NAME":"\u82d7\u6817\u5e02","county":"\u82d7\u6817\u7e23","town":"\u82d7\u6817\u5e02","longitude":"120.81097","latitude":"24.56333"}},"\u4f5c\u7269\u5c08\u5340\u9810\u5831":{"\u82d7\u6817\u5340\u8fb2\u696d\u6539\u826f\u5834-\u672c\u5834":{"ID":"M002","type":"\u4f5c\u7269\u5c08\u5340\u9810\u5831","NAME":"\u82d7\u6817\u5340\u8fb2\u696d\u6539\u826f\u5834-\u672c\u5834","county":"\u82d7\u6817\u7e23","town":"\u82d7\u6817\u5e02","longitude":"120.81097","latitude":"24.56333"}}},"\u82d1\u88e1\u93ae":{"\u9109\u93ae\u9810\u5831":{"\u82d7\u6817\u7e23\u82d1\u88e1\u93ae":{"ID":"10005020","type":"\u9109\u93ae\u9810\u5831","NAME":"\u82d1\u88e1\u93ae","county":"\u82d7\u6817\u7e23","town":"\u82d1\u88e1\u93ae","longitude":"120.64496","latitude":"24.44142"}},"\u4f5c\u7269\u5c08\u5340\u9810\u5831":{"\u82d1\u88e1\u93ae-\u6c34\u7a3b":{"ID":"L106","type":"\u4f5c\u7269\u5c08\u5340\u9810\u5831","NAME":"\u82d1\u88e1\u93ae-\u6c34\u7a3b","county":"\u82d7\u6817\u7e23","town":"\u82d1\u88e1\u93ae","longitude":"120.64496","latitude":"24.44142"}}},"\u901a\u9704\u93ae":{"\u9109\u93ae\u9810\u5831":{"\u82d7\u6817\u7e23\u901a\u9704\u93ae":{"ID":"10005030","type":"\u9109\u93ae\u9810\u5831","NAME":"\u901a\u9704\u93ae","county":"\u82d7\u6817\u7e23","town":"\u901a\u9704\u93ae","longitude":"120.67611","latitude":"24.49307"}}},"\u7af9\u5357\u93ae":{"\u9109\u93ae\u9810\u5831":{"\u82d7\u6817\u7e23\u7af9\u5357\u93ae":{"ID":"10005040","type":"\u9109\u93ae\u9810\u5831","NAME":"\u7af9\u5357\u93ae","county":"\u82d7\u6817\u7e23","town":"\u7af9\u5357\u93ae","longitude":"120.86529","latitude":"24.68565"}}},"\u982d\u4efd\u5e02":{"\u9109\u93ae\u9810\u5831":{"\u82d7\u6817\u7e23\u982d\u4efd\u5e02":{"ID":"10005050","type":"\u9109\u93ae\u9810\u5831","NAME":"\u982d\u4efd\u5e02","county":"\u82d7\u6817\u7e23","town":"\u982d\u4efd\u5e02","longitude":"120.90477","latitude":"24.68792"}}},"\u5f8c\u9f8d\u93ae":{"\u9109\u93ae\u9810\u5831":{"\u82d7\u6817\u7e23\u5f8c\u9f8d\u93ae":{"ID":"10005060","type":"\u9109\u93ae\u9810\u5831","NAME":"\u5f8c\u9f8d\u93ae","county":"\u82d7\u6817\u7e23","town":"\u5f8c\u9f8d\u93ae","longitude":"120.78385","latitude":"24.61543"}}},"\u5353\u862d\u93ae":{"\u9109\u93ae\u9810\u5831":{"\u82d7\u6817\u7e23\u5353\u862d\u93ae":{"ID":"10005070","type":"\u9109\u93ae\u9810\u5831","NAME":"\u5353\u862d\u93ae","county":"\u82d7\u6817\u7e23","town":"\u5353\u862d\u93ae","longitude":"120.81640","latitude":"24.31465"}},"\u4f5c\u7269\u5c08\u5340\u9810\u5831":{"\u5353\u862d\u93ae-\u9ad8\u63a5\u68a8":{"ID":"L068","type":"\u4f5c\u7269\u5c08\u5340\u9810\u5831","NAME":"\u5353\u862d\u93ae-\u9ad8\u63a5\u68a8","county":"\u82d7\u6817\u7e23","town":"\u5353\u862d\u93ae","longitude":"120.81640","latitude":"24.31465"},"\u5353\u862d\u93ae-\u8461\u8404":{"ID":"L092","type":"\u4f5c\u7269\u5c08\u5340\u9810\u5831","NAME":"\u5353\u862d\u93ae-\u8461\u8404","county":"\u82d7\u6817\u7e23","town":"\u5353\u862d\u93ae","longitude":"120.81640","latitude":"24.31465"}}},"\u5927\u6e56\u9109":{"\u9109\u93ae\u9810\u5831":{"\u82d7\u6817\u7e23\u5927\u6e56\u9109":{"ID":"10005080","type":"\u9109\u93ae\u9810\u5831","NAME":"\u5927\u6e56\u9109","county":"\u82d7\u6817\u7e23","town":"\u5927\u6e56\u9109","longitude":"120.85800","latitude":"24.42518"}},"\u4f5c\u7269\u5c08\u5340\u9810\u5831":{"\u5927\u6e56\u9109-\u8349\u8393":{"ID":"L032","type":"\u4f5c\u7269\u5c08\u5340\u9810\u5831","NAME":"\u5927\u6e56\u9109-\u8349\u8393","county":"\u82d7\u6817\u7e23","town":"\u5927\u6e56\u9109","longitude":"120.85800","latitude":"24.42518"}}},"\u516c\u9928\u9109":{"\u9109\u93ae\u9810\u5831":{"\u82d7\u6817\u7e23\u516c\u9928\u9109":{"ID":"10005090","type":"\u9109\u93ae\u9810\u5831","NAME":"\u516c\u9928\u9109","county":"\u82d7\u6817\u7e23","town":"\u516c\u9928\u9109","longitude":"120.82031","latitude":"24.50757"}},"\u4f5c\u7269\u5c08\u5340\u9810\u5831":{"\u516c\u9928\u9109-\u7d05\u68d7":{"ID":"L069","type":"\u4f5c\u7269\u5c08\u5340\u9810\u5831","NAME":"\u516c\u9928\u9109-\u7d05\u68d7","county":"\u82d7\u6817\u7e23","town":"\u516c\u9928\u9109","longitude":"120.82031","latitude":"24.50757"}}},"\u9285\u947c\u9109":{"\u9109\u93ae\u9810\u5831":{"\u82d7\u6817\u7e23\u9285\u947c\u9109":{"ID":"10005100","type":"\u9109\u93ae\u9810\u5831","NAME":"\u9285\u947c\u9109","county":"\u82d7\u6817\u7e23","town":"\u9285\u947c\u9109","longitude":"120.77967","latitude":"24.48875"}}},"\u5357\u5e84\u9109":{"\u9109\u93ae\u9810\u5831":{"\u82d7\u6817\u7e23\u5357\u5e84\u9109":{"ID":"10005110","type":"\u9109\u93ae\u9810\u5831","NAME":"\u5357\u5e84\u9109","county":"\u82d7\u6817\u7e23","town":"\u5357\u5e84\u9109","longitude":"120.99218","latitude":"24.59886"}}},"\u982d\u5c4b\u9109":{"\u9109\u93ae\u9810\u5831":{"\u82d7\u6817\u7e23\u982d\u5c4b\u9109":{"ID":"10005120","type":"\u9109\u93ae\u9810\u5831","NAME":"\u982d\u5c4b\u9109","county":"\u82d7\u6817\u7e23","town":"\u982d\u5c4b\u9109","longitude":"120.84291","latitude":"24.57952"}}},"\u4e09\u7fa9\u9109":{"\u9109\u93ae\u9810\u5831":{"\u82d7\u6817\u7e23\u4e09\u7fa9\u9109":{"ID":"10005130","type":"\u9109\u93ae\u9810\u5831","NAME":"\u4e09\u7fa9\u9109","county":"\u82d7\u6817\u7e23","town":"\u4e09\u7fa9\u9109","longitude":"120.76201","latitude":"24.41462"}}},"\u897f\u6e56\u9109":{"\u9109\u93ae\u9810\u5831":{"\u82d7\u6817\u7e23\u897f\u6e56\u9109":{"ID":"10005140","type":"\u9109\u93ae\u9810\u5831","NAME":"\u897f\u6e56\u9109","county":"\u82d7\u6817\u7e23","town":"\u897f\u6e56\u9109","longitude":"120.74917","latitude":"24.55838"}},"\u4f5c\u7269\u5c08\u5340\u9810\u5831":{"\u897f\u6e56\u9109-\u6587\u65e6\u67da":{"ID":"L070","type":"\u4f5c\u7269\u5c08\u5340\u9810\u5831","NAME":"\u897f\u6e56\u9109-\u6587\u65e6\u67da","county":"\u82d7\u6817\u7e23","town":"\u897f\u6e56\u9109","longitude":"120.74917","latitude":"24.55838"},"\u755c\u7522\u8a66\u9a57\u6240-\u65b0\u7af9\u5206\u6240":{"ID":"M015","type":"\u4f5c\u7269\u5c08\u5340\u9810\u5831","NAME":"\u755c\u7522\u8a66\u9a57\u6240-\u65b0\u7af9\u5206\u6240","county":"\u82d7\u6817\u7e23","town":"\u897f\u6e56\u9109","longitude":"120.74917","latitude":"24.55838"}}},"\u9020\u6a4b\u9109":{"\u9109\u93ae\u9810\u5831":{"\u82d7\u6817\u7e23\u9020\u6a4b\u9109":{"ID":"10005150","type":"\u9109\u93ae\u9810\u5831","NAME":"\u9020\u6a4b\u9109","county":"\u82d7\u6817\u7e23","town":"\u9020\u6a4b\u9109","longitude":"120.85727","latitude":"24.64018"}}},"\u4e09\u7063\u9109":{"\u9109\u93ae\u9810\u5831":{"\u82d7\u6817\u7e23\u4e09\u7063\u9109":{"ID":"10005160","type":"\u9109\u93ae\u9810\u5831","NAME":"\u4e09\u7063\u9109","county":"\u82d7\u6817\u7e23","town":"\u4e09\u7063\u9109","longitude":"120.94863","latitude":"24.65491"}},"\u4f5c\u7269\u5c08\u5340\u9810\u5831":{"\u4e09\u7063\u9109-\u68a8":{"ID":"L056","type":"\u4f5c\u7269\u5c08\u5340\u9810\u5831","NAME":"\u4e09\u7063\u9109-\u68a8","county":"\u82d7\u6817\u7e23","town":"\u4e09\u7063\u9109","longitude":"120.94863","latitude":"24.65491"}}},"\u7345\u6f6d\u9109":{"\u9109\u93ae\u9810\u5831":{"\u82d7\u6817\u7e23\u7345\u6f6d\u9109":{"ID":"10005170","type":"\u9109\u93ae\u9810\u5831","NAME":"\u7345\u6f6d\u9109","county":"\u82d7\u6817\u7e23","town":"\u7345\u6f6d\u9109","longitude":"120.91190","latitude":"24.54132"}}},"\u6cf0\u5b89\u9109":{"\u9109\u93ae\u9810\u5831":{"\u82d7\u6817\u7e23\u6cf0\u5b89\u9109":{"ID":"10005180","type":"\u9109\u93ae\u9810\u5831","NAME":"\u6cf0\u5b89\u9109","county":"\u82d7\u6817\u7e23","town":"\u6cf0\u5b89\u9109","longitude":"120.89978","latitude":"24.44897"}},"\u4f5c\u7269\u5c08\u5340\u9810\u5831":{"\u6cf0\u5b89\u9109-\u674e":{"ID":"L071","type":"\u4f5c\u7269\u5c08\u5340\u9810\u5831","NAME":"\u6cf0\u5b89\u9109-\u674e","county":"\u82d7\u6817\u7e23","town":"\u6cf0\u5b89\u9109","longitude":"120.89978","latitude":"24.44897"}}}},"\u5f70\u5316\u7e23":{"\u5f70\u5316\u5e02":{"\u9109\u93ae\u9810\u5831":{"\u5f70\u5316\u7e23\u5f70\u5316\u5e02":{"ID":"10007010","type":"\u9109\u93ae\u9810\u5831","NAME":"\u5f70\u5316\u5e02","county":"\u5f70\u5316\u7e23","town":"\u5f70\u5316\u5e02","longitude":"120.53406","latitude":"24.08257"}}},"\u9e7f\u6e2f\u93ae":{"\u9109\u93ae\u9810\u5831":{"\u5f70\u5316\u7e23\u9e7f\u6e2f\u93ae":{"ID":"10007020","type":"\u9109\u93ae\u9810\u5831","NAME":"\u9e7f\u6e2f\u93ae","county":"\u5f70\u5316\u7e23","town":"\u9e7f\u6e2f\u93ae","longitude":"120.42690","latitude":"24.05896"}}},"\u548c\u7f8e\u93ae":{"\u9109\u93ae\u9810\u5831":{"\u5f70\u5316\u7e23\u548c\u7f8e\u93ae":{"ID":"10007030","type":"\u9109\u93ae\u9810\u5831","NAME":"\u548c\u7f8e\u93ae","county":"\u5f70\u5316\u7e23","town":"\u548c\u7f8e\u93ae","longitude":"120.48608","latitude":"24.11023"}}},"\u7dda\u897f\u9109":{"\u9109\u93ae\u9810\u5831":{"\u5f70\u5316\u7e23\u7dda\u897f\u9109":{"ID":"10007040","type":"\u9109\u93ae\u9810\u5831","NAME":"\u7dda\u897f\u9109","county":"\u5f70\u5316\u7e23","town":"\u7dda\u897f\u9109","longitude":"120.46258","latitude":"24.13232"}}},"\u4f38\u6e2f\u9109":{"\u9109\u93ae\u9810\u5831":{"\u5f70\u5316\u7e23\u4f38\u6e2f\u9109":{"ID":"10007050","type":"\u9109\u93ae\u9810\u5831","NAME":"\u4f38\u6e2f\u9109","county":"\u5f70\u5316\u7e23","town":"\u4f38\u6e2f\u9109","longitude":"120.47804","latitude":"24.16157"}},"\u4f5c\u7269\u5c08\u5340\u9810\u5831":{"\u5f70\u5316\u7e23-\u4f38\u6e2f\u9109":{"ID":"L060","type":"\u4f5c\u7269\u5c08\u5340\u9810\u5831","NAME":"\u5f70\u5316\u7e23-\u4f38\u6e2f\u9109","county":"\u5f70\u5316\u7e23","town":"\u4f38\u6e2f\u9109","longitude":"120.47804","latitude":"24.16157"}}},"\u798f\u8208\u9109":{"\u9109\u93ae\u9810\u5831":{"\u5f70\u5316\u7e23\u798f\u8208\u9109":{"ID":"10007060","type":"\u9109\u93ae\u9810\u5831","NAME":"\u798f\u8208\u9109","county":"\u5f70\u5316\u7e23","town":"\u798f\u8208\u9109","longitude":"120.43572","latitude":"24.04972"}},"\u4f5c\u7269\u5c08\u5340\u9810\u5831":{"\u798f\u8208\u9109-\u4e73\u725b":{"ID":"P001","type":"\u4f5c\u7269\u5c08\u5340\u9810\u5831","NAME":"\u798f\u8208\u9109-\u4e73\u725b","county":"\u5f70\u5316\u7e23","town":"\u798f\u8208\u9109","longitude":"120.43572","latitude":"24.04972"}}},"\u79c0\u6c34\u9109":{"\u9109\u93ae\u9810\u5831":{"\u5f70\u5316\u7e23\u79c0\u6c34\u9109":{"ID":"10007070","type":"\u9109\u93ae\u9810\u5831","NAME":"\u79c0\u6c34\u9109","county":"\u5f70\u5316\u7e23","town":"\u79c0\u6c34\u9109","longitude":"120.49471","latitude":"24.03702"}}},"\u82b1\u58c7\u9109":{"\u9109\u93ae\u9810\u5831":{"\u5f70\u5316\u7e23\u82b1\u58c7\u9109":{"ID":"10007080","type":"\u9109\u93ae\u9810\u5831","NAME":"\u82b1\u58c7\u9109","county":"\u5f70\u5316\u7e23","town":"\u82b1\u58c7\u9109","longitude":"120.53011","latitude":"24.03136"}}},"\u82ac\u5712\u9109":{"\u9109\u93ae\u9810\u5831":{"\u5f70\u5316\u7e23\u82ac\u5712\u9109":{"ID":"10007090","type":"\u9109\u93ae\u9810\u5831","NAME":"\u82ac\u5712\u9109","county":"\u5f70\u5316\u7e23","town":"\u82ac\u5712\u9109","longitude":"120.62081","latitude":"24.01538"}}},"\u54e1\u6797\u5e02":{"\u9109\u93ae\u9810\u5831":{"\u5f70\u5316\u7e23\u54e1\u6797\u5e02":{"ID":"10007100","type":"\u9109\u93ae\u9810\u5831","NAME":"\u54e1\u6797\u5e02","county":"\u5f70\u5316\u7e23","town":"\u54e1\u6797\u5e02","longitude":"120.56622","latitude":"23.96081"}}},"\u6eaa\u6e56\u93ae":{"\u9109\u93ae\u9810\u5831":{"\u5f70\u5316\u7e23\u6eaa\u6e56\u93ae":{"ID":"10007110","type":"\u9109\u93ae\u9810\u5831","NAME":"\u6eaa\u6e56\u93ae","county":"\u5f70\u5316\u7e23","town":"\u6eaa\u6e56\u93ae","longitude":"120.47541","latitude":"23.96790"}},"\u4f5c\u7269\u5c08\u5340\u9810\u5831":{"\u6eaa\u6e56\u93ae-\u8461\u8404":{"ID":"L091","type":"\u4f5c\u7269\u5c08\u5340\u9810\u5831","NAME":"\u6eaa\u6e56\u93ae-\u8461\u8404","county":"\u5f70\u5316\u7e23","town":"\u6eaa\u6e56\u93ae","longitude":"120.47541","latitude":"23.96790"}}},"\u7530\u4e2d\u93ae":{"\u9109\u93ae\u9810\u5831":{"\u5f70\u5316\u7e23\u7530\u4e2d\u93ae":{"ID":"10007120","type":"\u9109\u93ae\u9810\u5831","NAME":"\u7530\u4e2d\u93ae","county":"\u5f70\u5316\u7e23","town":"\u7530\u4e2d\u93ae","longitude":"120.57281","latitude":"23.86324"}}},"\u5927\u6751\u9109":{"\u9109\u93ae\u9810\u5831":{"\u5f70\u5316\u7e23\u5927\u6751\u9109":{"ID":"10007130","type":"\u9109\u93ae\u9810\u5831","NAME":"\u5927\u6751\u9109","county":"\u5f70\u5316\u7e23","town":"\u5927\u6751\u9109","longitude":"120.53911","latitude":"23.99517"}},"\u4f5c\u7269\u5c08\u5340\u9810\u5831":{"\u5927\u6751\u9109-\u8461\u8404":{"ID":"L015","type":"\u4f5c\u7269\u5c08\u5340\u9810\u5831","NAME":"\u5927\u6751\u9109-\u8461\u8404","county":"\u5f70\u5316\u7e23","town":"\u5927\u6751\u9109","longitude":"120.53911","latitude":"23.99517"},"\u81fa\u4e2d\u5340\u8fb2\u696d\u6539\u826f\u5834-\u672c\u5834":{"ID":"M003","type":"\u4f5c\u7269\u5c08\u5340\u9810\u5831","NAME":"\u81fa\u4e2d\u5340\u8fb2\u696d\u6539\u826f\u5834-\u672c\u5834","county":"\u5f70\u5316\u7e23","town":"\u5927\u6751\u9109","longitude":"120.53911","latitude":"23.99517"}}},"\u57d4\u9e7d\u9109":{"\u9109\u93ae\u9810\u5831":{"\u5f70\u5316\u7e23\u57d4\u9e7d\u9109":{"ID":"10007140","type":"\u9109\u93ae\u9810\u5831","NAME":"\u57d4\u9e7d\u9109","county":"\u5f70\u5316\u7e23","town":"\u57d4\u9e7d\u9109","longitude":"120.45543","latitude":"24.00204"}},"\u4f5c\u7269\u5c08\u5340\u9810\u5831":{"\u9e7d\u57d4\u9109-\u9752\u8525":{"ID":"L067","type":"\u4f5c\u7269\u5c08\u5340\u9810\u5831","NAME":"\u9e7d\u57d4\u9109-\u9752\u8525","county":"\u5f70\u5316\u7e23","town":"\u57d4\u9e7d\u9109","longitude":"120.45543","latitude":"24.00204"}}},"\u57d4\u5fc3\u9109":{"\u9109\u93ae\u9810\u5831":{"\u5f70\u5316\u7e23\u57d4\u5fc3\u9109":{"ID":"10007150","type":"\u9109\u93ae\u9810\u5831","NAME":"\u57d4\u5fc3\u9109","county":"\u5f70\u5316\u7e23","town":"\u57d4\u5fc3\u9109","longitude":"120.53539","latitude":"23.95474"}}},"\u6c38\u9756\u9109":{"\u9109\u93ae\u9810\u5831":{"\u5f70\u5316\u7e23\u6c38\u9756\u9109":{"ID":"10007160","type":"\u9109\u93ae\u9810\u5831","NAME":"\u6c38\u9756\u9109","county":"\u5f70\u5316\u7e23","town":"\u6c38\u9756\u9109","longitude":"120.53959","latitude":"23.92642"}}},"\u793e\u982d\u9109":{"\u9109\u93ae\u9810\u5831":{"\u5f70\u5316\u7e23\u793e\u982d\u9109":{"ID":"10007170","type":"\u9109\u93ae\u9810\u5831","NAME":"\u793e\u982d\u9109","county":"\u5f70\u5316\u7e23","town":"\u793e\u982d\u9109","longitude":"120.57771","latitude":"23.89848"}}},"\u4e8c\u6c34\u9109":{"\u9109\u93ae\u9810\u5831":{"\u5f70\u5316\u7e23\u4e8c\u6c34\u9109":{"ID":"10007180","type":"\u9109\u93ae\u9810\u5831","NAME":"\u4e8c\u6c34\u9109","county":"\u5f70\u5316\u7e23","town":"\u4e8c\u6c34\u9109","longitude":"120.61078","latitude":"23.80836"}}},"\u5317\u6597\u93ae":{"\u9109\u93ae\u9810\u5831":{"\u5f70\u5316\u7e23\u5317\u6597\u93ae":{"ID":"10007190","type":"\u9109\u93ae\u9810\u5831","NAME":"\u5317\u6597\u93ae","county":"\u5f70\u5316\u7e23","town":"\u5317\u6597\u93ae","longitude":"120.51369","latitude":"23.86330"}}},"\u4e8c\u6797\u93ae":{"\u9109\u93ae\u9810\u5831":{"\u5f70\u5316\u7e23\u4e8c\u6797\u93ae":{"ID":"10007200","type":"\u9109\u93ae\u9810\u5831","NAME":"\u4e8c\u6797\u93ae","county":"\u5f70\u5316\u7e23","town":"\u4e8c\u6797\u93ae","longitude":"120.36623","latitude":"23.90147"}},"\u4f5c\u7269\u5c08\u5340\u9810\u5831":{"\u4e8c\u6797\u93ae-\u706b\u9f8d\u679c":{"ID":"L006","type":"\u4f5c\u7269\u5c08\u5340\u9810\u5831","NAME":"\u4e8c\u6797\u93ae-\u706b\u9f8d\u679c","county":"\u5f70\u5316\u7e23","town":"\u4e8c\u6797\u93ae","longitude":"120.36623","latitude":"23.90147"}}},"\u7530\u5c3e\u9109":{"\u9109\u93ae\u9810\u5831":{"\u5f70\u5316\u7e23\u7530\u5c3e\u9109":{"ID":"10007210","type":"\u9109\u93ae\u9810\u5831","NAME":"\u7530\u5c3e\u9109","county":"\u5f70\u5316\u7e23","town":"\u7530\u5c3e\u9109","longitude":"120.51780","latitude":"23.89395"}},"\u4f5c\u7269\u5c08\u5340\u9810\u5831":{"\u7530\u5c3e\u9109-\u83ca\u82b1":{"ID":"L042","type":"\u4f5c\u7269\u5c08\u5340\u9810\u5831","NAME":"\u7530\u5c3e\u9109-\u83ca\u82b1","county":"\u5f70\u5316\u7e23","town":"\u7530\u5c3e\u9109","longitude":"120.51780","latitude":"23.89395"}}},"\u57e4\u982d\u9109":{"\u9109\u93ae\u9810\u5831":{"\u5f70\u5316\u7e23\u57e4\u982d\u9109":{"ID":"10007220","type":"\u9109\u93ae\u9810\u5831","NAME":"\u57e4\u982d\u9109","county":"\u5f70\u5316\u7e23","town":"\u57e4\u982d\u9109","longitude":"120.45404","latitude":"23.89330"}},"\u4f5c\u7269\u5c08\u5340\u9810\u5831":{"\u57e4\u982d\u9109-\u6c34\u7a3b":{"ID":"L101","type":"\u4f5c\u7269\u5c08\u5340\u9810\u5831","NAME":"\u57e4\u982d\u9109-\u6c34\u7a3b","county":"\u5f70\u5316\u7e23","town":"\u57e4\u982d\u9109","longitude":"120.45404","latitude":"23.89330"}}},"\u82b3\u82d1\u9109":{"\u9109\u93ae\u9810\u5831":{"\u5f70\u5316\u7e23\u82b3\u82d1\u9109":{"ID":"10007230","type":"\u9109\u93ae\u9810\u5831","NAME":"\u82b3\u82d1\u9109","county":"\u5f70\u5316\u7e23","town":"\u82b3\u82d1\u9109","longitude":"120.31220","latitude":"23.92606"}}},"\u5927\u57ce\u9109":{"\u9109\u93ae\u9810\u5831":{"\u5f70\u5316\u7e23\u5927\u57ce\u9109":{"ID":"10007240","type":"\u9109\u93ae\u9810\u5831","NAME":"\u5927\u57ce\u9109","county":"\u5f70\u5316\u7e23","town":"\u5927\u57ce\u9109","longitude":"120.31281","latitude":"23.85403"}}},"\u7af9\u5858\u9109":{"\u9109\u93ae\u9810\u5831":{"\u5f70\u5316\u7e23\u7af9\u5858\u9109":{"ID":"10007250","type":"\u9109\u93ae\u9810\u5831","NAME":"\u7af9\u5858\u9109","county":"\u5f70\u5316\u7e23","town":"\u7af9\u5858\u9109","longitude":"120.41972","latitude":"23.86220"}}},"\u6eaa\u5dde\u9109":{"\u9109\u93ae\u9810\u5831":{"\u5f70\u5316\u7e23\u6eaa\u5dde\u9109":{"ID":"10007260","type":"\u9109\u93ae\u9810\u5831","NAME":"\u6eaa\u5dde\u9109","county":"\u5f70\u5316\u7e23","town":"\u6eaa\u5dde\u9109","longitude":"120.49094","latitude":"23.85345"}},"\u4f5c\u7269\u5c08\u5340\u9810\u5831":{"\u6eaa\u5dde\u9109-\u756a\u77f3\u69b4":{"ID":"L089","type":"\u4f5c\u7269\u5c08\u5340\u9810\u5831","NAME":"\u6eaa\u5dde\u9109-\u756a\u77f3\u69b4","county":"\u5f70\u5316\u7e23","town":"\u6eaa\u5dde\u9109","longitude":"120.49094","latitude":"23.85345"}}}},"\u5357\u6295\u7e23":{"\u5357\u6295\u5e02":{"\u9109\u93ae\u9810\u5831":{"\u5357\u6295\u7e23\u5357\u6295\u5e02":{"ID":"10008010","type":"\u9109\u93ae\u9810\u5831","NAME":"\u5357\u6295\u5e02","county":"\u5357\u6295\u7e23","town":"\u5357\u6295\u5e02","longitude":"120.67924","latitude":"23.91330"}}},"\u57d4\u91cc\u93ae":{"\u9109\u93ae\u9810\u5831":{"\u5357\u6295\u7e23\u57d4\u91cc\u93ae":{"ID":"10008020","type":"\u9109\u93ae\u9810\u5831","NAME":"\u57d4\u91cc\u93ae","county":"\u5357\u6295\u7e23","town":"\u57d4\u91cc\u93ae","longitude":"120.96106","latitude":"23.96831"}},"\u4f5c\u7269\u5c08\u5340\u9810\u5831":{"\u57d4\u91cc\u93ae-\u767e\u9999\u679c":{"ID":"L023","type":"\u4f5c\u7269\u5c08\u5340\u9810\u5831","NAME":"\u57d4\u91cc\u93ae-\u767e\u9999\u679c","county":"\u5357\u6295\u7e23","town":"\u57d4\u91cc\u93ae","longitude":"120.96106","latitude":"23.96831"},"\u57d4\u91cc\u93ae-\u7b4a\u767d\u7b4d":{"ID":"L034","type":"\u4f5c\u7269\u5c08\u5340\u9810\u5831","NAME":"\u57d4\u91cc\u93ae-\u7b4a\u767d\u7b4d","county":"\u5357\u6295\u7e23","town":"\u57d4\u91cc\u93ae","longitude":"120.96106","latitude":"23.96831"},"\u57d4\u91cc\u93ae-\u73ab\u7470":{"ID":"L041","type":"\u4f5c\u7269\u5c08\u5340\u9810\u5831","NAME":"\u57d4\u91cc\u93ae-\u73ab\u7470","county":"\u5357\u6295\u7e23","town":"\u57d4\u91cc\u93ae","longitude":"120.96106","latitude":"23.96831"}}},"\u8349\u5c6f\u93ae":{"\u9109\u93ae\u9810\u5831":{"\u5357\u6295\u7e23\u8349\u5c6f\u93ae":{"ID":"10008030","type":"\u9109\u93ae\u9810\u5831","NAME":"\u8349\u5c6f\u93ae","county":"\u5357\u6295\u7e23","town":"\u8349\u5c6f\u93ae","longitude":"120.67212","latitude":"23.97555"}},"\u4f5c\u7269\u5c08\u5340\u9810\u5831":{"\u8349\u5c6f\u93ae-\u6c34\u7a3b":{"ID":"L108","type":"\u4f5c\u7269\u5c08\u5340\u9810\u5831","NAME":"\u8349\u5c6f\u93ae-\u6c34\u7a3b","county":"\u5357\u6295\u7e23","town":"\u8349\u5c6f\u93ae","longitude":"120.67212","latitude":"23.97555"}}},"\u7af9\u5c71\u93ae":{"\u9109\u93ae\u9810\u5831":{"\u5357\u6295\u7e23\u7af9\u5c71\u93ae":{"ID":"10008040","type":"\u9109\u93ae\u9810\u5831","NAME":"\u7af9\u5c71\u93ae","county":"\u5357\u6295\u7e23","town":"\u7af9\u5c71\u93ae","longitude":"120.66329","latitude":"23.75942"}}},"\u96c6\u96c6\u93ae":{"\u9109\u93ae\u9810\u5831":{"\u5357\u6295\u7e23\u96c6\u96c6\u93ae":{"ID":"10008050","type":"\u9109\u93ae\u9810\u5831","NAME":"\u96c6\u96c6\u93ae","county":"\u5357\u6295\u7e23","town":"\u96c6\u96c6\u93ae","longitude":"120.77840","latitude":"23.83019"}},"\u4f5c\u7269\u5c08\u5340\u9810\u5831":{"\u96c6\u96c6\u93ae-\u7d05\u9f8d\u679c":{"ID":"L110","type":"\u4f5c\u7269\u5c08\u5340\u9810\u5831","NAME":"\u96c6\u96c6\u93ae-\u7d05\u9f8d\u679c","county":"\u5357\u6295\u7e23","town":"\u96c6\u96c6\u93ae","longitude":"120.77840","latitude":"23.83019"}}},"\u540d\u9593\u9109":{"\u9109\u93ae\u9810\u5831":{"\u5357\u6295\u7e23\u540d\u9593\u9109":{"ID":"10008060","type":"\u9109\u93ae\u9810\u5831","NAME":"\u540d\u9593\u9109","county":"\u5357\u6295\u7e23","town":"\u540d\u9593\u9109","longitude":"120.69493","latitude":"23.84007"}},"\u4f5c\u7269\u5c08\u5340\u9810\u5831":{"\u540d\u9593\u9109-\u9cf3\u68a8":{"ID":"L018","type":"\u4f5c\u7269\u5c08\u5340\u9810\u5831","NAME":"\u540d\u9593\u9109-\u9cf3\u68a8","county":"\u5357\u6295\u7e23","town":"\u540d\u9593\u9109","longitude":"120.69493","latitude":"23.84007"},"\u540d\u9593\u9109-\u8336":{"ID":"L040","type":"\u4f5c\u7269\u5c08\u5340\u9810\u5831","NAME":"\u540d\u9593\u9109-\u8336","county":"\u5357\u6295\u7e23","town":"\u540d\u9593\u9109","longitude":"120.69493","latitude":"23.84007"},"\u540d\u9593\u9109-\u7af9\u570d\u8336":{"ID":"L113","type":"\u4f5c\u7269\u5c08\u5340\u9810\u5831","NAME":"\u540d\u9593\u9109-\u7af9\u570d\u8336","county":"\u5357\u6295\u7e23","town":"\u540d\u9593\u9109","longitude":"120.69493","latitude":"23.84007"}}},"\u9e7f\u8c37\u9109":{"\u9109\u93ae\u9810\u5831":{"\u5357\u6295\u7e23\u9e7f\u8c37\u9109":{"ID":"10008070","type":"\u9109\u93ae\u9810\u5831","NAME":"\u9e7f\u8c37\u9109","county":"\u5357\u6295\u7e23","town":"\u9e7f\u8c37\u9109","longitude":"120.74544","latitude":"23.74735"}},"\u4f5c\u7269\u5c08\u5340\u9810\u5831":{"\u9e7f\u8c37\u9109-\u8336":{"ID":"L038","type":"\u4f5c\u7269\u5c08\u5340\u9810\u5831","NAME":"\u9e7f\u8c37\u9109-\u8336","county":"\u5357\u6295\u7e23","town":"\u9e7f\u8c37\u9109","longitude":"120.74544","latitude":"23.74735"}}},"\u4e2d\u5bee\u9109":{"\u9109\u93ae\u9810\u5831":{"\u5357\u6295\u7e23\u4e2d\u5bee\u9109":{"ID":"10008080","type":"\u9109\u93ae\u9810\u5831","NAME":"\u4e2d\u5bee\u9109","county":"\u5357\u6295\u7e23","town":"\u4e2d\u5bee\u9109","longitude":"120.75803","latitude":"23.88074"}},"\u4f5c\u7269\u5c08\u5340\u9810\u5831":{"\u4e2d\u5bee\u9109-\u9999\u8549":{"ID":"L021","type":"\u4f5c\u7269\u5c08\u5340\u9810\u5831","NAME":"\u4e2d\u5bee\u9109-\u9999\u8549","county":"\u5357\u6295\u7e23","town":"\u4e2d\u5bee\u9109","longitude":"120.75803","latitude":"23.88074"}}},"\u9b5a\u6c60\u9109":{"\u9109\u93ae\u9810\u5831":{"\u5357\u6295\u7e23\u9b5a\u6c60\u9109":{"ID":"10008090","type":"\u9109\u93ae\u9810\u5831","NAME":"\u9b5a\u6c60\u9109","county":"\u5357\u6295\u7e23","town":"\u9b5a\u6c60\u9109","longitude":"120.92750","latitude":"23.89753"}},"\u4f5c\u7269\u5c08\u5340\u9810\u5831":{"\u4e5d\u65cf\u6587\u5316\u6751-\u516b\u91cd\u6afb":{"ID":"E090","type":"\u4f5c\u7269\u5c08\u5340\u9810\u5831","NAME":"\u4e5d\u65cf\u6587\u5316\u6751-\u516b\u91cd\u6afb","county":"\u5357\u6295\u7e23","town":"\u9b5a\u6c60\u9109","longitude":"120.92750","latitude":"23.89753"}}},"\u570b\u59d3\u9109":{"\u9109\u93ae\u9810\u5831":{"\u5357\u6295\u7e23\u570b\u59d3\u9109":{"ID":"10008100","type":"\u9109\u93ae\u9810\u5831","NAME":"\u570b\u59d3\u9109","county":"\u5357\u6295\u7e23","town":"\u570b\u59d3\u9109","longitude":"120.84927","latitude":"24.04186"}}},"\u6c34\u91cc\u9109":{"\u9109\u93ae\u9810\u5831":{"\u5357\u6295\u7e23\u6c34\u91cc\u9109":{"ID":"10008110","type":"\u9109\u93ae\u9810\u5831","NAME":"\u6c34\u91cc\u9109","county":"\u5357\u6295\u7e23","town":"\u6c34\u91cc\u9109","longitude":"120.84777","latitude":"23.81307"}}},"\u4fe1\u7fa9\u9109":{"\u9109\u93ae\u9810\u5831":{"\u5357\u6295\u7e23\u4fe1\u7fa9\u9109":{"ID":"10008120","type":"\u9109\u93ae\u9810\u5831","NAME":"\u4fe1\u7fa9\u9109","county":"\u5357\u6295\u7e23","town":"\u4fe1\u7fa9\u9109","longitude":"120.84643","latitude":"23.69859"}},"\u4f5c\u7269\u5c08\u5340\u9810\u5831":{"\u4fe1\u7fa9\u9109-\u8461\u8404":{"ID":"L016","type":"\u4f5c\u7269\u5c08\u5340\u9810\u5831","NAME":"\u4fe1\u7fa9\u9109-\u8461\u8404","county":"\u5357\u6295\u7e23","town":"\u4fe1\u7fa9\u9109","longitude":"120.84643","latitude":"23.69859"}}},"\u4ec1\u611b\u9109":{"\u9109\u93ae\u9810\u5831":{"\u5357\u6295\u7e23\u4ec1\u611b\u9109":{"ID":"10008130","type":"\u9109\u93ae\u9810\u5831","NAME":"\u4ec1\u611b\u9109","county":"\u5357\u6295\u7e23","town":"\u4ec1\u611b\u9109","longitude":"121.12415","latitude":"24.02323"}}}},"\u96f2\u6797\u7e23":{"\u6597\u516d\u5e02":{"\u9109\u93ae\u9810\u5831":{"\u96f2\u6797\u7e23\u6597\u516d\u5e02":{"ID":"10009010","type":"\u9109\u93ae\u9810\u5831","NAME":"\u6597\u516d\u5e02","county":"\u96f2\u6797\u7e23","town":"\u6597\u516d\u5e02","longitude":"120.51887","latitude":"23.69883"}}},"\u6597\u5357\u93ae":{"\u9109\u93ae\u9810\u5831":{"\u96f2\u6797\u7e23\u6597\u5357\u93ae":{"ID":"10009020","type":"\u9109\u93ae\u9810\u5831","NAME":"\u6597\u5357\u93ae","county":"\u96f2\u6797\u7e23","town":"\u6597\u5357\u93ae","longitude":"120.46952","latitude":"23.68173"}}},"\u864e\u5c3e\u93ae":{"\u9109\u93ae\u9810\u5831":{"\u96f2\u6797\u7e23\u864e\u5c3e\u93ae":{"ID":"10009030","type":"\u9109\u93ae\u9810\u5831","NAME":"\u864e\u5c3e\u93ae","county":"\u96f2\u6797\u7e23","town":"\u864e\u5c3e\u93ae","longitude":"120.43717","latitude":"23.71000"}},"\u4f5c\u7269\u5c08\u5340\u9810\u5831":{"\u864e\u5c3e\u93ae-\u7389\u7c73":{"ID":"L050","type":"\u4f5c\u7269\u5c08\u5340\u9810\u5831","NAME":"\u864e\u5c3e\u93ae-\u7389\u7c73","county":"\u96f2\u6797\u7e23","town":"\u864e\u5c3e\u93ae","longitude":"120.43717","latitude":"23.71000"},"\u864e\u5c3e\u93ae-\u8449\u83dc\u985e":{"ID":"L066","type":"\u4f5c\u7269\u5c08\u5340\u9810\u5831","NAME":"\u864e\u5c3e\u93ae-\u8449\u83dc\u985e","county":"\u96f2\u6797\u7e23","town":"\u864e\u5c3e\u93ae","longitude":"120.43717","latitude":"23.71000"}}},"\u897f\u87ba\u93ae":{"\u9109\u93ae\u9810\u5831":{"\u96f2\u6797\u7e23\u897f\u87ba\u93ae":{"ID":"10009040","type":"\u9109\u93ae\u9810\u5831","NAME":"\u897f\u87ba\u93ae","county":"\u96f2\u6797\u7e23","town":"\u897f\u87ba\u93ae","longitude":"120.45750","latitude":"23.79950"}},"\u4f5c\u7269\u5c08\u5340\u9810\u5831":{"\u897f\u87ba\u93ae-\u8449\u83dc\u985e":{"ID":"L037","type":"\u4f5c\u7269\u5c08\u5340\u9810\u5831","NAME":"\u897f\u87ba\u93ae-\u8449\u83dc\u985e","county":"\u96f2\u6797\u7e23","town":"\u897f\u87ba\u93ae","longitude":"120.45750","latitude":"23.79950"},"\u897f\u87ba\u93ae-\u6c34\u7a3b":{"ID":"L053","type":"\u4f5c\u7269\u5c08\u5340\u9810\u5831","NAME":"\u897f\u87ba\u93ae-\u6c34\u7a3b","county":"\u96f2\u6797\u7e23","town":"\u897f\u87ba\u93ae","longitude":"120.45750","latitude":"23.79950"}}},"\u571f\u5eab\u93ae":{"\u9109\u93ae\u9810\u5831":{"\u96f2\u6797\u7e23\u571f\u5eab\u93ae":{"ID":"10009050","type":"\u9109\u93ae\u9810\u5831","NAME":"\u571f\u5eab\u93ae","county":"\u96f2\u6797\u7e23","town":"\u571f\u5eab\u93ae","longitude":"120.38432","latitude":"23.67960"}}},"\u5317\u6e2f\u93ae":{"\u9109\u93ae\u9810\u5831":{"\u96f2\u6797\u7e23\u5317\u6e2f\u93ae":{"ID":"10009060","type":"\u9109\u93ae\u9810\u5831","NAME":"\u5317\u6e2f\u93ae","county":"\u96f2\u6797\u7e23","town":"\u5317\u6e2f\u93ae","longitude":"120.29427","latitude":"23.57775"}}},"\u53e4\u5751\u9109":{"\u9109\u93ae\u9810\u5831":{"\u96f2\u6797\u7e23\u53e4\u5751\u9109":{"ID":"10009070","type":"\u9109\u93ae\u9810\u5831","NAME":"\u53e4\u5751\u9109","county":"\u96f2\u6797\u7e23","town":"\u53e4\u5751\u9109","longitude":"120.55389","latitude":"23.64455"}},"\u4f5c\u7269\u5c08\u5340\u9810\u5831":{"\u53e4\u5751\u9109-\u67f3\u6a59":{"ID":"L026","type":"\u4f5c\u7269\u5c08\u5340\u9810\u5831","NAME":"\u53e4\u5751\u9109-\u67f3\u6a59","county":"\u96f2\u6797\u7e23","town":"\u53e4\u5751\u9109","longitude":"120.55389","latitude":"23.64455"},"\u8fb2\u696d\u8a66\u9a57\u6240-\u82b1\u5349\u7814\u7a76\u4e2d\u5fc3":{"ID":"M012","type":"\u4f5c\u7269\u5c08\u5340\u9810\u5831","NAME":"\u8fb2\u696d\u8a66\u9a57\u6240-\u82b1\u5349\u7814\u7a76\u4e2d\u5fc3","county":"\u96f2\u6797\u7e23","town":"\u53e4\u5751\u9109","longitude":"120.55389","latitude":"23.64455"}}},"\u5927\u57e4\u9109":{"\u9109\u93ae\u9810\u5831":{"\u96f2\u6797\u7e23\u5927\u57e4\u9109":{"ID":"10009080","type":"\u9109\u93ae\u9810\u5831","NAME":"\u5927\u57e4\u9109","county":"\u96f2\u6797\u7e23","town":"\u5927\u57e4\u9109","longitude":"120.42323","latitude":"23.64754"}}},"\u83bf\u6850\u9109":{"\u9109\u93ae\u9810\u5831":{"\u96f2\u6797\u7e23\u83bf\u6850\u9109":{"ID":"10009090","type":"\u9109\u93ae\u9810\u5831","NAME":"\u83bf\u6850\u9109","county":"\u96f2\u6797\u7e23","town":"\u83bf\u6850\u9109","longitude":"120.49433","latitude":"23.76279"}}},"\u6797\u5167\u9109":{"\u9109\u93ae\u9810\u5831":{"\u96f2\u6797\u7e23\u6797\u5167\u9109":{"ID":"10009100","type":"\u9109\u93ae\u9810\u5831","NAME":"\u6797\u5167\u9109","county":"\u96f2\u6797\u7e23","town":"\u6797\u5167\u9109","longitude":"120.60475","latitude":"23.75792"}}},"\u4e8c\u5d19\u9109":{"\u9109\u93ae\u9810\u5831":{"\u96f2\u6797\u7e23\u4e8c\u5d19\u9109":{"ID":"10009110","type":"\u9109\u93ae\u9810\u5831","NAME":"\u4e8c\u5d19\u9109","county":"\u96f2\u6797\u7e23","town":"\u4e8c\u5d19\u9109","longitude":"120.40470","latitude":"23.77288"}},"\u4f5c\u7269\u5c08\u5340\u9810\u5831":{"\u4e8c\u5d19\u9109-\u8449\u83dc\u985e":{"ID":"L063","type":"\u4f5c\u7269\u5c08\u5340\u9810\u5831","NAME":"\u4e8c\u5d19\u9109-\u8449\u83dc\u985e","county":"\u96f2\u6797\u7e23","town":"\u4e8c\u5d19\u9109","longitude":"120.40470","latitude":"23.77288"}}},"\u5d19\u80cc\u9109":{"\u9109\u93ae\u9810\u5831":{"\u96f2\u6797\u7e23\u5d19\u80cc\u9109":{"ID":"10009120","type":"\u9109\u93ae\u9810\u5831","NAME":"\u5d19\u80cc\u9109","county":"\u96f2\u6797\u7e23","town":"\u5d19\u80cc\u9109","longitude":"120.35099","latitude":"23.76418"}}},"\u9ea5\u5bee\u9109":{"\u9109\u93ae\u9810\u5831":{"\u96f2\u6797\u7e23\u9ea5\u5bee\u9109":{"ID":"10009130","type":"\u9109\u93ae\u9810\u5831","NAME":"\u9ea5\u5bee\u9109","county":"\u96f2\u6797\u7e23","town":"\u9ea5\u5bee\u9109","longitude":"120.24350","latitude":"23.75557"}},"\u4f5c\u7269\u5c08\u5340\u9810\u5831":{"\u9ea5\u5bee\u9109-\u7f8e\u751f\u83dc":{"ID":"L036","type":"\u4f5c\u7269\u5c08\u5340\u9810\u5831","NAME":"\u9ea5\u5bee\u9109-\u7f8e\u751f\u83dc","county":"\u96f2\u6797\u7e23","town":"\u9ea5\u5bee\u9109","longitude":"120.24350","latitude":"23.75557"}}},"\u6771\u52e2\u9109":{"\u9109\u93ae\u9810\u5831":{"\u96f2\u6797\u7e23\u6771\u52e2\u9109":{"ID":"10009140","type":"\u9109\u93ae\u9810\u5831","NAME":"\u6771\u52e2\u9109","county":"\u96f2\u6797\u7e23","town":"\u6771\u52e2\u9109","longitude":"120.24448","latitude":"23.67678"}},"\u4f5c\u7269\u5c08\u5340\u9810\u5831":{"\u6771\u52e2\u9109-\u80e1\u863f\u8514":{"ID":"L035","type":"\u4f5c\u7269\u5c08\u5340\u9810\u5831","NAME":"\u6771\u52e2\u9109-\u80e1\u863f\u8514","county":"\u96f2\u6797\u7e23","town":"\u6771\u52e2\u9109","longitude":"120.24448","latitude":"23.67678"}}},"\u8912\u5fe0\u9109":{"\u9109\u93ae\u9810\u5831":{"\u96f2\u6797\u7e23\u8912\u5fe0\u9109":{"ID":"10009150","type":"\u9109\u93ae\u9810\u5831","NAME":"\u8912\u5fe0\u9109","county":"\u96f2\u6797\u7e23","town":"\u8912\u5fe0\u9109","longitude":"120.29525","latitude":"23.69285"}}},"\u81fa\u897f\u9109":{"\u9109\u93ae\u9810\u5831":{"\u96f2\u6797\u7e23\u81fa\u897f\u9109":{"ID":"10009160","type":"\u9109\u93ae\u9810\u5831","NAME":"\u81fa\u897f\u9109","county":"\u96f2\u6797\u7e23","town":"\u81fa\u897f\u9109","longitude":"120.18870","latitude":"23.70215"}}},"\u5143\u9577\u9109":{"\u9109\u93ae\u9810\u5831":{"\u96f2\u6797\u7e23\u5143\u9577\u9109":{"ID":"10009170","type":"\u9109\u93ae\u9810\u5831","NAME":"\u5143\u9577\u9109","county":"\u96f2\u6797\u7e23","town":"\u5143\u9577\u9109","longitude":"120.30702","latitude":"23.65143"}}},"\u56db\u6e56\u9109":{"\u9109\u93ae\u9810\u5831":{"\u96f2\u6797\u7e23\u56db\u6e56\u9109":{"ID":"10009180","type":"\u9109\u93ae\u9810\u5831","NAME":"\u56db\u6e56\u9109","county":"\u96f2\u6797\u7e23","town":"\u56db\u6e56\u9109","longitude":"120.21631","latitude":"23.63990"}}},"\u53e3\u6e56\u9109":{"\u9109\u93ae\u9810\u5831":{"\u96f2\u6797\u7e23\u53e3\u6e56\u9109":{"ID":"10009190","type":"\u9109\u93ae\u9810\u5831","NAME":"\u53e3\u6e56\u9109","county":"\u96f2\u6797\u7e23","town":"\u53e3\u6e56\u9109","longitude":"120.17733","latitude":"23.58424"}}},"\u6c34\u6797\u9109":{"\u9109\u93ae\u9810\u5831":{"\u96f2\u6797\u7e23\u6c34\u6797\u9109":{"ID":"10009200","type":"\u9109\u93ae\u9810\u5831","NAME":"\u6c34\u6797\u9109","county":"\u96f2\u6797\u7e23","town":"\u6c34\u6797\u9109","longitude":"120.23799","latitude":"23.57457"}},"\u4f5c\u7269\u5c08\u5340\u9810\u5831":{"\u6c34\u6797\u9109-\u7518\u85f7":{"ID":"L048","type":"\u4f5c\u7269\u5c08\u5340\u9810\u5831","NAME":"\u6c34\u6797\u9109-\u7518\u85f7","county":"\u96f2\u6797\u7e23","town":"\u6c34\u6797\u9109","longitude":"120.23799","latitude":"23.57457"}}}},"\u5609\u7fa9\u7e23":{"\u592a\u4fdd\u5e02":{"\u9109\u93ae\u9810\u5831":{"\u5609\u7fa9\u7e23\u592a\u4fdd\u5e02":{"ID":"10010010","type":"\u9109\u93ae\u9810\u5831","NAME":"\u592a\u4fdd\u5e02","county":"\u5609\u7fa9\u7e23","town":"\u592a\u4fdd\u5e02","longitude":"120.32399","latitude":"23.46023"}},"\u4f5c\u7269\u5c08\u5340\u9810\u5831":{"\u592a\u4fdd\u5e02-\u6eab\u5ba4\u8a2d\u65bd":{"ID":"L082","type":"\u4f5c\u7269\u5c08\u5340\u9810\u5831","NAME":"\u592a\u4fdd\u5e02-\u6eab\u5ba4\u8a2d\u65bd","county":"\u5609\u7fa9\u7e23","town":"\u592a\u4fdd\u5e02","longitude":"120.32399","latitude":"23.46023"}}},"\u6734\u5b50\u5e02":{"\u9109\u93ae\u9810\u5831":{"\u5609\u7fa9\u7e23\u6734\u5b50\u5e02":{"ID":"10010020","type":"\u9109\u93ae\u9810\u5831","NAME":"\u6734\u5b50\u5e02","county":"\u5609\u7fa9\u7e23","town":"\u6734\u5b50\u5e02","longitude":"120.23891","latitude":"23.46689"}}},"\u5e03\u888b\u93ae":{"\u9109\u93ae\u9810\u5831":{"\u5609\u7fa9\u7e23\u5e03\u888b\u93ae":{"ID":"10010030","type":"\u9109\u93ae\u9810\u5831","NAME":"\u5e03\u888b\u93ae","county":"\u5609\u7fa9\u7e23","town":"\u5e03\u888b\u93ae","longitude":"120.15884","latitude":"23.37978"}}},"\u5927\u6797\u93ae":{"\u9109\u93ae\u9810\u5831":{"\u5609\u7fa9\u7e23\u5927\u6797\u93ae":{"ID":"10010040","type":"\u9109\u93ae\u9810\u5831","NAME":"\u5927\u6797\u93ae","county":"\u5609\u7fa9\u7e23","town":"\u5927\u6797\u93ae","longitude":"120.46305","latitude":"23.60568"}}},"\u6c11\u96c4\u9109":{"\u9109\u93ae\u9810\u5831":{"\u5609\u7fa9\u7e23\u6c11\u96c4\u9109":{"ID":"10010050","type":"\u9109\u93ae\u9810\u5831","NAME":"\u6c11\u96c4\u9109","county":"\u5609\u7fa9\u7e23","town":"\u6c11\u96c4\u9109","longitude":"120.42039","latitude":"23.55320"}},"\u4f5c\u7269\u5c08\u5340\u9810\u5831":{"\u6c11\u96c4\u9109-\u9cf3\u68a8":{"ID":"L099","type":"\u4f5c\u7269\u5c08\u5340\u9810\u5831","NAME":"\u6c11\u96c4\u9109-\u9cf3\u68a8","county":"\u5609\u7fa9\u7e23","town":"\u6c11\u96c4\u9109","longitude":"120.42039","latitude":"23.55320"}}},"\u6eaa\u53e3\u9109":{"\u9109\u93ae\u9810\u5831":{"\u5609\u7fa9\u7e23\u6eaa\u53e3\u9109":{"ID":"10010060","type":"\u9109\u93ae\u9810\u5831","NAME":"\u6eaa\u53e3\u9109","county":"\u5609\u7fa9\u7e23","town":"\u6eaa\u53e3\u9109","longitude":"120.38419","latitude":"23.60431"}}},"\u65b0\u6e2f\u9109":{"\u9109\u93ae\u9810\u5831":{"\u5609\u7fa9\u7e23\u65b0\u6e2f\u9109":{"ID":"10010070","type":"\u9109\u93ae\u9810\u5831","NAME":"\u65b0\u6e2f\u9109","county":"\u5609\u7fa9\u7e23","town":"\u65b0\u6e2f\u9109","longitude":"120.33934","latitude":"23.55382"}},"\u4f5c\u7269\u5c08\u5340\u9810\u5831":{"\u65b0\u6e2f\u9109-\u6c34\u7a3b":{"ID":"L102","type":"\u4f5c\u7269\u5c08\u5340\u9810\u5831","NAME":"\u65b0\u6e2f\u9109-\u6c34\u7a3b","county":"\u5609\u7fa9\u7e23","town":"\u65b0\u6e2f\u9109","longitude":"120.33934","latitude":"23.55382"}}},"\u516d\u8173\u9109":{"\u9109\u93ae\u9810\u5831":{"\u5609\u7fa9\u7e23\u516d\u8173\u9109":{"ID":"10010080","type":"\u9109\u93ae\u9810\u5831","NAME":"\u516d\u8173\u9109","county":"\u5609\u7fa9\u7e23","town":"\u516d\u8173\u9109","longitude":"120.28364","latitude":"23.49492"}}},"\u6771\u77f3\u9109":{"\u9109\u93ae\u9810\u5831":{"\u5609\u7fa9\u7e23\u6771\u77f3\u9109":{"ID":"10010090","type":"\u9109\u93ae\u9810\u5831","NAME":"\u6771\u77f3\u9109","county":"\u5609\u7fa9\u7e23","town":"\u6771\u77f3\u9109","longitude":"120.14557","latitude":"23.46055"}}},"\u7fa9\u7af9\u9109":{"\u9109\u93ae\u9810\u5831":{"\u5609\u7fa9\u7e23\u7fa9\u7af9\u9109":{"ID":"10010100","type":"\u9109\u93ae\u9810\u5831","NAME":"\u7fa9\u7af9\u9109","county":"\u5609\u7fa9\u7e23","town":"\u7fa9\u7af9\u9109","longitude":"120.23518","latitude":"23.33797"}}},"\u9e7f\u8349\u9109":{"\u9109\u93ae\u9810\u5831":{"\u5609\u7fa9\u7e23\u9e7f\u8349\u9109":{"ID":"10010110","type":"\u9109\u93ae\u9810\u5831","NAME":"\u9e7f\u8349\u9109","county":"\u5609\u7fa9\u7e23","town":"\u9e7f\u8349\u9109","longitude":"120.30013","latitude":"23.41312"}}},"\u6c34\u4e0a\u9109":{"\u9109\u93ae\u9810\u5831":{"\u5609\u7fa9\u7e23\u6c34\u4e0a\u9109":{"ID":"10010120","type":"\u9109\u93ae\u9810\u5831","NAME":"\u6c34\u4e0a\u9109","county":"\u5609\u7fa9\u7e23","town":"\u6c34\u4e0a\u9109","longitude":"120.39007","latitude":"23.43020"}}},"\u4e2d\u57d4\u9109":{"\u9109\u93ae\u9810\u5831":{"\u5609\u7fa9\u7e23\u4e2d\u57d4\u9109":{"ID":"10010130","type":"\u9109\u93ae\u9810\u5831","NAME":"\u4e2d\u57d4\u9109","county":"\u5609\u7fa9\u7e23","town":"\u4e2d\u57d4\u9109","longitude":"120.51483","latitude":"23.42678"}},"\u4f5c\u7269\u5c08\u5340\u9810\u5831":{"\u4e2d\u57d4\u9109-\u9999\u8549":{"ID":"L094","type":"\u4f5c\u7269\u5c08\u5340\u9810\u5831","NAME":"\u4e2d\u57d4\u9109-\u9999\u8549","county":"\u5609\u7fa9\u7e23","town":"\u4e2d\u57d4\u9109","longitude":"120.51483","latitude":"23.42678"}}},"\u7af9\u5d0e\u9109":{"\u9109\u93ae\u9810\u5831":{"\u5609\u7fa9\u7e23\u7af9\u5d0e\u9109":{"ID":"10010140","type":"\u9109\u93ae\u9810\u5831","NAME":"\u7af9\u5d0e\u9109","county":"\u5609\u7fa9\u7e23","town":"\u7af9\u5d0e\u9109","longitude":"120.54327","latitude":"23.52475"}},"\u4f5c\u7269\u5c08\u5340\u9810\u5831":{"\u7af9\u5d0e\u9109-\u8336":{"ID":"L039","type":"\u4f5c\u7269\u5c08\u5340\u9810\u5831","NAME":"\u7af9\u5d0e\u9109-\u8336","county":"\u5609\u7fa9\u7e23","town":"\u7af9\u5d0e\u9109","longitude":"120.54327","latitude":"23.52475"},"\u7af9\u5d0e\u9109-\u9999\u8549":{"ID":"L093","type":"\u4f5c\u7269\u5c08\u5340\u9810\u5831","NAME":"\u7af9\u5d0e\u9109-\u9999\u8549","county":"\u5609\u7fa9\u7e23","town":"\u7af9\u5d0e\u9109","longitude":"120.54327","latitude":"23.52475"}}},"\u6885\u5c71\u9109":{"\u9109\u93ae\u9810\u5831":{"\u5609\u7fa9\u7e23\u6885\u5c71\u9109":{"ID":"10010150","type":"\u9109\u93ae\u9810\u5831","NAME":"\u6885\u5c71\u9109","county":"\u5609\u7fa9\u7e23","town":"\u6885\u5c71\u9109","longitude":"120.54761","latitude":"23.58666"}},"\u4f5c\u7269\u5c08\u5340\u9810\u5831":{"\u6885\u5c71\u9109-\u692a\u67d1":{"ID":"L025","type":"\u4f5c\u7269\u5c08\u5340\u9810\u5831","NAME":"\u6885\u5c71\u9109-\u692a\u67d1","county":"\u5609\u7fa9\u7e23","town":"\u6885\u5c71\u9109","longitude":"120.54761","latitude":"23.58666"}}},"\u756a\u8def\u9109":{"\u9109\u93ae\u9810\u5831":{"\u5609\u7fa9\u7e23\u756a\u8def\u9109":{"ID":"10010160","type":"\u9109\u93ae\u9810\u5831","NAME":"\u756a\u8def\u9109","county":"\u5609\u7fa9\u7e23","town":"\u756a\u8def\u9109","longitude":"120.54595","latitude":"23.46626"}},"\u4f5c\u7269\u5c08\u5340\u9810\u5831":{"\u756a\u8def\u9109-\u751c\u67ff":{"ID":"L085","type":"\u4f5c\u7269\u5c08\u5340\u9810\u5831","NAME":"\u756a\u8def\u9109-\u751c\u67ff","county":"\u5609\u7fa9\u7e23","town":"\u756a\u8def\u9109","longitude":"120.54595","latitude":"23.46626"}}},"\u5927\u57d4\u9109":{"\u9109\u93ae\u9810\u5831":{"\u5609\u7fa9\u7e23\u5927\u57d4\u9109":{"ID":"10010170","type":"\u9109\u93ae\u9810\u5831","NAME":"\u5927\u57d4\u9109","county":"\u5609\u7fa9\u7e23","town":"\u5927\u57d4\u9109","longitude":"120.58565","latitude":"23.29660"}}},"\u963f\u91cc\u5c71\u9109":{"\u9109\u93ae\u9810\u5831":{"\u5609\u7fa9\u7e23\u963f\u91cc\u5c71\u9109":{"ID":"10010180","type":"\u9109\u93ae\u9810\u5831","NAME":"\u963f\u91cc\u5c71\u9109","county":"\u5609\u7fa9\u7e23","town":"\u963f\u91cc\u5c71\u9109","longitude":"120.70533","latitude":"23.47319"}},"\u4f5c\u7269\u5c08\u5340\u9810\u5831":{"\u963f\u91cc\u5c71\u570b\u5bb6\u68ee\u6797\u904a\u6a02\u5340-\u67d3\u4e95\u5409\u91ce\u6afb":{"ID":"E032","type":"\u4f5c\u7269\u5c08\u5340\u9810\u5831","NAME":"\u963f\u91cc\u5c71\u570b\u5bb6\u68ee\u6797\u904a\u6a02\u5340-\u67d3\u4e95\u5409\u91ce\u6afb","county":"\u5609\u7fa9\u7e23","town":"\u963f\u91cc\u5c71\u9109","longitude":"120.70533","latitude":"23.47319"}}}},"\u5c4f\u6771\u7e23":{"\u5c4f\u6771\u5e02":{"\u9109\u93ae\u9810\u5831":{"\u5c4f\u6771\u7e23\u5c4f\u6771\u5e02":{"ID":"10013010","type":"\u9109\u93ae\u9810\u5831","NAME":"\u5c4f\u6771\u5e02","county":"\u5c4f\u6771\u7e23","town":"\u5c4f\u6771\u5e02","longitude":"120.48339","latitude":"22.66424"}}},"\u6f6e\u5dde\u93ae":{"\u9109\u93ae\u9810\u5831":{"\u5c4f\u6771\u7e23\u6f6e\u5dde\u93ae":{"ID":"10013020","type":"\u9109\u93ae\u9810\u5831","NAME":"\u6f6e\u5dde\u93ae","county":"\u5c4f\u6771\u7e23","town":"\u6f6e\u5dde\u93ae","longitude":"120.53489","latitude":"22.55163"}}},"\u6771\u6e2f\u93ae":{"\u9109\u93ae\u9810\u5831":{"\u5c4f\u6771\u7e23\u6771\u6e2f\u93ae":{"ID":"10013030","type":"\u9109\u93ae\u9810\u5831","NAME":"\u6771\u6e2f\u93ae","county":"\u5c4f\u6771\u7e23","town":"\u6771\u6e2f\u93ae","longitude":"120.44622","latitude":"22.46843"}}},"\u6046\u6625\u93ae":{"\u9109\u93ae\u9810\u5831":{"\u5c4f\u6771\u7e23\u6046\u6625\u93ae":{"ID":"10013040","type":"\u9109\u93ae\u9810\u5831","NAME":"\u6046\u6625\u93ae","county":"\u5c4f\u6771\u7e23","town":"\u6046\u6625\u93ae","longitude":"120.73927","latitude":"22.00562"}},"\u4f5c\u7269\u5c08\u5340\u9810\u5831":{"\u755c\u7522\u8a66\u9a57\u6240-\u6046\u6625\u5206\u6240":{"ID":"M014","type":"\u4f5c\u7269\u5c08\u5340\u9810\u5831","NAME":"\u755c\u7522\u8a66\u9a57\u6240-\u6046\u6625\u5206\u6240","county":"\u5c4f\u6771\u7e23","town":"\u6046\u6625\u93ae","longitude":"120.73927","latitude":"22.00562"}}},"\u842c\u4e39\u9109":{"\u9109\u93ae\u9810\u5831":{"\u5c4f\u6771\u7e23\u842c\u4e39\u9109":{"ID":"10013050","type":"\u9109\u93ae\u9810\u5831","NAME":"\u842c\u4e39\u9109","county":"\u5c4f\u6771\u7e23","town":"\u842c\u4e39\u9109","longitude":"120.47705","latitude":"22.59126"}},"\u4f5c\u7269\u5c08\u5340\u9810\u5831":{"\u842c\u4e39\u9109-\u7d05\u8c46":{"ID":"L051","type":"\u4f5c\u7269\u5c08\u5340\u9810\u5831","NAME":"\u842c\u4e39\u9109-\u7d05\u8c46","county":"\u5c4f\u6771\u7e23","town":"\u842c\u4e39\u9109","longitude":"120.47705","latitude":"22.59126"}}},"\u9577\u6cbb\u9109":{"\u9109\u93ae\u9810\u5831":{"\u5c4f\u6771\u7e23\u9577\u6cbb\u9109":{"ID":"10013060","type":"\u9109\u93ae\u9810\u5831","NAME":"\u9577\u6cbb\u9109","county":"\u5c4f\u6771\u7e23","town":"\u9577\u6cbb\u9109","longitude":"120.51915","latitude":"22.67825"}},"\u4f5c\u7269\u5c08\u5340\u9810\u5831":{"\u9577\u6cbb\u9109-\u756a\u6728\u74dc":{"ID":"L003","type":"\u4f5c\u7269\u5c08\u5340\u9810\u5831","NAME":"\u9577\u6cbb\u9109-\u756a\u6728\u74dc","county":"\u5c4f\u6771\u7e23","town":"\u9577\u6cbb\u9109","longitude":"120.51915","latitude":"22.67825"},"\u9ad8\u96c4\u5340\u8fb2\u696d\u6539\u826f\u5834-\u672c\u5834":{"ID":"M005","type":"\u4f5c\u7269\u5c08\u5340\u9810\u5831","NAME":"\u9ad8\u96c4\u5340\u8fb2\u696d\u6539\u826f\u5834-\u672c\u5834","county":"\u5c4f\u6771\u7e23","town":"\u9577\u6cbb\u9109","longitude":"120.51915","latitude":"22.67825"}}},"\u9e9f\u6d1b\u9109":{"\u9109\u93ae\u9810\u5831":{"\u5c4f\u6771\u7e23\u9e9f\u6d1b\u9109":{"ID":"10013070","type":"\u9109\u93ae\u9810\u5831","NAME":"\u9e9f\u6d1b\u9109","county":"\u5c4f\u6771\u7e23","town":"\u9e9f\u6d1b\u9109","longitude":"120.51904","latitude":"22.65234"}}},"\u4e5d\u5982\u9109":{"\u9109\u93ae\u9810\u5831":{"\u5c4f\u6771\u7e23\u4e5d\u5982\u9109":{"ID":"10013080","type":"\u9109\u93ae\u9810\u5831","NAME":"\u4e5d\u5982\u9109","county":"\u5c4f\u6771\u7e23","town":"\u4e5d\u5982\u9109","longitude":"120.48234","latitude":"22.74203"}}},"\u91cc\u6e2f\u9109":{"\u9109\u93ae\u9810\u5831":{"\u5c4f\u6771\u7e23\u91cc\u6e2f\u9109":{"ID":"10013090","type":"\u9109\u93ae\u9810\u5831","NAME":"\u91cc\u6e2f\u9109","county":"\u5c4f\u6771\u7e23","town":"\u91cc\u6e2f\u9109","longitude":"120.48641","latitude":"22.78092"}}},"\u9e7d\u57d4\u9109":{"\u9109\u93ae\u9810\u5831":{"\u5c4f\u6771\u7e23\u9e7d\u57d4\u9109":{"ID":"10013100","type":"\u9109\u93ae\u9810\u5831","NAME":"\u9e7d\u57d4\u9109","county":"\u5c4f\u6771\u7e23","town":"\u9e7d\u57d4\u9109","longitude":"120.56463","latitude":"22.75619"}}},"\u9ad8\u6a39\u9109":{"\u9109\u93ae\u9810\u5831":{"\u5c4f\u6771\u7e23\u9ad8\u6a39\u9109":{"ID":"10013110","type":"\u9109\u93ae\u9810\u5831","NAME":"\u9ad8\u6a39\u9109","county":"\u5c4f\u6771\u7e23","town":"\u9ad8\u6a39\u9109","longitude":"120.59225","latitude":"22.82831"}},"\u4f5c\u7269\u5c08\u5340\u9810\u5831":{"\u9ad8\u6a39\u9109\u756a-\u6728\u74dc":{"ID":"L087","type":"\u4f5c\u7269\u5c08\u5340\u9810\u5831","NAME":"\u9ad8\u6a39\u9109\u756a-\u6728\u74dc","county":"\u5c4f\u6771\u7e23","town":"\u9ad8\u6a39\u9109","longitude":"120.59225","latitude":"22.82831"}}},"\u842c\u5dd2\u9109":{"\u9109\u93ae\u9810\u5831":{"\u5c4f\u6771\u7e23\u842c\u5dd2\u9109":{"ID":"10013120","type":"\u9109\u93ae\u9810\u5831","NAME":"\u842c\u5dd2\u9109","county":"\u5c4f\u6771\u7e23","town":"\u842c\u5dd2\u9109","longitude":"120.55972","latitude":"22.57448"}}},"\u5167\u57d4\u9109":{"\u9109\u93ae\u9810\u5831":{"\u5c4f\u6771\u7e23\u5167\u57d4\u9109":{"ID":"10013130","type":"\u9109\u93ae\u9810\u5831","NAME":"\u5167\u57d4\u9109","county":"\u5c4f\u6771\u7e23","town":"\u5167\u57d4\u9109","longitude":"120.55867","latitude":"22.61382"}}},"\u7af9\u7530\u9109":{"\u9109\u93ae\u9810\u5831":{"\u5c4f\u6771\u7e23\u7af9\u7530\u9109":{"ID":"10013140","type":"\u9109\u93ae\u9810\u5831","NAME":"\u7af9\u7530\u9109","county":"\u5c4f\u6771\u7e23","town":"\u7af9\u7530\u9109","longitude":"120.53598","latitude":"22.58646"}}},"\u65b0\u57e4\u9109":{"\u9109\u93ae\u9810\u5831":{"\u5c4f\u6771\u7e23\u65b0\u57e4\u9109":{"ID":"10013150","type":"\u9109\u93ae\u9810\u5831","NAME":"\u65b0\u57e4\u9109","county":"\u5c4f\u6771\u7e23","town":"\u65b0\u57e4\u9109","longitude":"120.54184","latitude":"22.47198"}}},"\u678b\u5bee\u9109":{"\u9109\u93ae\u9810\u5831":{"\u5c4f\u6771\u7e23\u678b\u5bee\u9109":{"ID":"10013160","type":"\u9109\u93ae\u9810\u5831","NAME":"\u678b\u5bee\u9109","county":"\u5c4f\u6771\u7e23","town":"\u678b\u5bee\u9109","longitude":"120.58544","latitude":"22.36726"}}},"\u65b0\u5712\u9109":{"\u9109\u93ae\u9810\u5831":{"\u5c4f\u6771\u7e23\u65b0\u5712\u9109":{"ID":"10013170","type":"\u9109\u93ae\u9810\u5831","NAME":"\u65b0\u5712\u9109","county":"\u5c4f\u6771\u7e23","town":"\u65b0\u5712\u9109","longitude":"120.45349","latitude":"22.54561"}},"\u4f5c\u7269\u5c08\u5340\u9810\u5831":{"\u65b0\u5712\u9109-\u6c34\u7a3b":{"ID":"L107","type":"\u4f5c\u7269\u5c08\u5340\u9810\u5831","NAME":"\u65b0\u5712\u9109-\u6c34\u7a3b","county":"\u5c4f\u6771\u7e23","town":"\u65b0\u5712\u9109","longitude":"120.45349","latitude":"22.54561"}}},"\u5d01\u9802\u9109":{"\u9109\u93ae\u9810\u5831":{"\u5c4f\u6771\u7e23\u5d01\u9802\u9109":{"ID":"10013180","type":"\u9109\u93ae\u9810\u5831","NAME":"\u5d01\u9802\u9109","county":"\u5c4f\u6771\u7e23","town":"\u5d01\u9802\u9109","longitude":"120.50605","latitude":"22.51648"}},"\u4f5c\u7269\u5c08\u5340\u9810\u5831":{"\u5d01\u9802\u9109-\u6bdb\u8c46":{"ID":"L030","type":"\u4f5c\u7269\u5c08\u5340\u9810\u5831","NAME":"\u5d01\u9802\u9109-\u6bdb\u8c46","county":"\u5c4f\u6771\u7e23","town":"\u5d01\u9802\u9109","longitude":"120.50605","latitude":"22.51648"}}},"\u6797\u908a\u9109":{"\u9109\u93ae\u9810\u5831":{"\u5c4f\u6771\u7e23\u6797\u908a\u9109":{"ID":"10013190","type":"\u9109\u93ae\u9810\u5831","NAME":"\u6797\u908a\u9109","county":"\u5c4f\u6771\u7e23","town":"\u6797\u908a\u9109","longitude":"120.50626","latitude":"22.43671"}}},"\u5357\u5dde\u9109":{"\u9109\u93ae\u9810\u5831":{"\u5c4f\u6771\u7e23\u5357\u5dde\u9109":{"ID":"10013200","type":"\u9109\u93ae\u9810\u5831","NAME":"\u5357\u5dde\u9109","county":"\u5c4f\u6771\u7e23","town":"\u5357\u5dde\u9109","longitude":"120.50173","latitude":"22.49219"}},"\u4f5c\u7269\u5c08\u5340\u9810\u5831":{"\u5357\u5dde\u9109-\u84ee\u9727":{"ID":"L019","type":"\u4f5c\u7269\u5c08\u5340\u9810\u5831","NAME":"\u5357\u5dde\u9109-\u84ee\u9727","county":"\u5c4f\u6771\u7e23","town":"\u5357\u5dde\u9109","longitude":"120.50173","latitude":"22.49219"}}},"\u4f73\u51ac\u9109":{"\u9109\u93ae\u9810\u5831":{"\u5c4f\u6771\u7e23\u4f73\u51ac\u9109":{"ID":"10013210","type":"\u9109\u93ae\u9810\u5831","NAME":"\u4f73\u51ac\u9109","county":"\u5c4f\u6771\u7e23","town":"\u4f73\u51ac\u9109","longitude":"120.54439","latitude":"22.42099"}}},"\u7409\u7403\u9109":{"\u9109\u93ae\u9810\u5831":{"\u5c4f\u6771\u7e23\u7409\u7403\u9109":{"ID":"10013220","type":"\u9109\u93ae\u9810\u5831","NAME":"\u7409\u7403\u9109","county":"\u5c4f\u6771\u7e23","town":"\u7409\u7403\u9109","longitude":"120.37425","latitude":"22.35478"}}},"\u8eca\u57ce\u9109":{"\u9109\u93ae\u9810\u5831":{"\u5c4f\u6771\u7e23\u8eca\u57ce\u9109":{"ID":"10013230","type":"\u9109\u93ae\u9810\u5831","NAME":"\u8eca\u57ce\u9109","county":"\u5c4f\u6771\u7e23","town":"\u8eca\u57ce\u9109","longitude":"120.70622","latitude":"22.07550"}}},"\u6eff\u5dde\u9109":{"\u9109\u93ae\u9810\u5831":{"\u5c4f\u6771\u7e23\u6eff\u5dde\u9109":{"ID":"10013240","type":"\u9109\u93ae\u9810\u5831","NAME":"\u6eff\u5dde\u9109","county":"\u5c4f\u6771\u7e23","town":"\u6eff\u5dde\u9109","longitude":"120.83060","latitude":"22.02258"}}},"\u678b\u5c71\u9109":{"\u9109\u93ae\u9810\u5831":{"\u5c4f\u6771\u7e23\u678b\u5c71\u9109":{"ID":"10013250","type":"\u9109\u93ae\u9810\u5831","NAME":"\u678b\u5c71\u9109","county":"\u5c4f\u6771\u7e23","town":"\u678b\u5c71\u9109","longitude":"120.64442","latitude":"22.26576"}},"\u4f5c\u7269\u5c08\u5340\u9810\u5831":{"\u678b\u5c71\u9109-\u8292\u679c":{"ID":"L005","type":"\u4f5c\u7269\u5c08\u5340\u9810\u5831","NAME":"\u678b\u5c71\u9109-\u8292\u679c","county":"\u5c4f\u6771\u7e23","town":"\u678b\u5c71\u9109","longitude":"120.64442","latitude":"22.26576"}}},"\u4e09\u5730\u9580\u9109":{"\u9109\u93ae\u9810\u5831":{"\u5c4f\u6771\u7e23\u4e09\u5730\u9580\u9109":{"ID":"10013260","type":"\u9109\u93ae\u9810\u5831","NAME":"\u4e09\u5730\u9580\u9109","county":"\u5c4f\u6771\u7e23","town":"\u4e09\u5730\u9580\u9109","longitude":"120.67821","latitude":"22.72940"}}},"\u9727\u81fa\u9109":{"\u9109\u93ae\u9810\u5831":{"\u5c4f\u6771\u7e23\u9727\u81fa\u9109":{"ID":"10013270","type":"\u9109\u93ae\u9810\u5831","NAME":"\u9727\u81fa\u9109","county":"\u5c4f\u6771\u7e23","town":"\u9727\u81fa\u9109","longitude":"120.67100","latitude":"22.75078"}}},"\u746a\u5bb6\u9109":{"\u9109\u93ae\u9810\u5831":{"\u5c4f\u6771\u7e23\u746a\u5bb6\u9109":{"ID":"10013280","type":"\u9109\u93ae\u9810\u5831","NAME":"\u746a\u5bb6\u9109","county":"\u5c4f\u6771\u7e23","town":"\u746a\u5bb6\u9109","longitude":"120.64130","latitude":"22.71029"}}},"\u6cf0\u6b66\u9109":{"\u9109\u93ae\u9810\u5831":{"\u5c4f\u6771\u7e23\u6cf0\u6b66\u9109":{"ID":"10013290","type":"\u9109\u93ae\u9810\u5831","NAME":"\u6cf0\u6b66\u9109","county":"\u5c4f\u6771\u7e23","town":"\u6cf0\u6b66\u9109","longitude":"120.62379","latitude":"22.59363"}}},"\u4f86\u7fa9\u9109":{"\u9109\u93ae\u9810\u5831":{"\u5c4f\u6771\u7e23\u4f86\u7fa9\u9109":{"ID":"10013300","type":"\u9109\u93ae\u9810\u5831","NAME":"\u4f86\u7fa9\u9109","county":"\u5c4f\u6771\u7e23","town":"\u4f86\u7fa9\u9109","longitude":"120.62349","latitude":"22.52787"}}},"\u6625\u65e5\u9109":{"\u9109\u93ae\u9810\u5831":{"\u5c4f\u6771\u7e23\u6625\u65e5\u9109":{"ID":"10013310","type":"\u9109\u93ae\u9810\u5831","NAME":"\u6625\u65e5\u9109","county":"\u5c4f\u6771\u7e23","town":"\u6625\u65e5\u9109","longitude":"120.62103","latitude":"22.37274"}}},"\u7345\u5b50\u9109":{"\u9109\u93ae\u9810\u5831":{"\u5c4f\u6771\u7e23\u7345\u5b50\u9109":{"ID":"10013320","type":"\u9109\u93ae\u9810\u5831","NAME":"\u7345\u5b50\u9109","county":"\u5c4f\u6771\u7e23","town":"\u7345\u5b50\u9109","longitude":"120.69740","latitude":"22.20353"}}},"\u7261\u4e39\u9109":{"\u9109\u93ae\u9810\u5831":{"\u5c4f\u6771\u7e23\u7261\u4e39\u9109":{"ID":"10013330","type":"\u9109\u93ae\u9810\u5831","NAME":"\u7261\u4e39\u9109","county":"\u5c4f\u6771\u7e23","town":"\u7261\u4e39\u9109","longitude":"120.76620","latitude":"22.12809"}}}},"\u81fa\u6771\u7e23":{"\u81fa\u6771\u5e02":{"\u9109\u93ae\u9810\u5831":{"\u81fa\u6771\u7e23\u81fa\u6771\u5e02":{"ID":"10014010","type":"\u9109\u93ae\u9810\u5831","NAME":"\u81fa\u6771\u5e02","county":"\u81fa\u6771\u7e23","town":"\u81fa\u6771\u5e02","longitude":"121.13867","latitude":"22.75649"}},"\u4f5c\u7269\u5c08\u5340\u9810\u5831":{"\u81fa\u6771\u5e02-\u6c34\u7a3b":{"ID":"L074","type":"\u4f5c\u7269\u5c08\u5340\u9810\u5831","NAME":"\u81fa\u6771\u5e02-\u6c34\u7a3b","county":"\u81fa\u6771\u7e23","town":"\u81fa\u6771\u5e02","longitude":"121.13867","latitude":"22.75649"},"\u81fa\u6771\u5340\u8fb2\u696d\u6539\u826f\u5834-\u672c\u5834":{"ID":"M007","type":"\u4f5c\u7269\u5c08\u5340\u9810\u5831","NAME":"\u81fa\u6771\u5340\u8fb2\u696d\u6539\u826f\u5834-\u672c\u5834","county":"\u81fa\u6771\u7e23","town":"\u81fa\u6771\u5e02","longitude":"121.13867","latitude":"22.75649"}}},"\u6210\u529f\u93ae":{"\u9109\u93ae\u9810\u5831":{"\u81fa\u6771\u7e23\u6210\u529f\u93ae":{"ID":"10014020","type":"\u9109\u93ae\u9810\u5831","NAME":"\u6210\u529f\u93ae","county":"\u81fa\u6771\u7e23","town":"\u6210\u529f\u93ae","longitude":"121.37161","latitude":"23.10202"}}},"\u95dc\u5c71\u93ae":{"\u9109\u93ae\u9810\u5831":{"\u81fa\u6771\u7e23\u95dc\u5c71\u93ae":{"ID":"10014030","type":"\u9109\u93ae\u9810\u5831","NAME":"\u95dc\u5c71\u93ae","county":"\u81fa\u6771\u7e23","town":"\u95dc\u5c71\u93ae","longitude":"121.15501","latitude":"23.04922"}}},"\u5351\u5357\u9109":{"\u9109\u93ae\u9810\u5831":{"\u81fa\u6771\u7e23\u5351\u5357\u9109":{"ID":"10014040","type":"\u9109\u93ae\u9810\u5831","NAME":"\u5351\u5357\u9109","county":"\u81fa\u6771\u7e23","town":"\u5351\u5357\u9109","longitude":"121.07895","latitude":"22.78434"}},"\u4f5c\u7269\u5c08\u5340\u9810\u5831":{"\u5351\u5357\u9109-\u756a\u8354\u679d":{"ID":"L014","type":"\u4f5c\u7269\u5c08\u5340\u9810\u5831","NAME":"\u5351\u5357\u9109-\u756a\u8354\u679d","county":"\u81fa\u6771\u7e23","town":"\u5351\u5357\u9109","longitude":"121.07895","latitude":"22.78434"}}},"\u9e7f\u91ce\u9109":{"\u9109\u93ae\u9810\u5831":{"\u81fa\u6771\u7e23\u9e7f\u91ce\u9109":{"ID":"10014050","type":"\u9109\u93ae\u9810\u5831","NAME":"\u9e7f\u91ce\u9109","county":"\u81fa\u6771\u7e23","town":"\u9e7f\u91ce\u9109","longitude":"121.12805","latitude":"22.91627"}}},"\u6c60\u4e0a\u9109":{"\u9109\u93ae\u9810\u5831":{"\u81fa\u6771\u7e23\u6c60\u4e0a\u9109":{"ID":"10014060","type":"\u9109\u93ae\u9810\u5831","NAME":"\u6c60\u4e0a\u9109","county":"\u81fa\u6771\u7e23","town":"\u6c60\u4e0a\u9109","longitude":"121.20696","latitude":"23.12402"}},"\u4f5c\u7269\u5c08\u5340\u9810\u5831":{"\u6c60\u4e0a\u5340-\u6c34\u7a3b":{"ID":"L054","type":"\u4f5c\u7269\u5c08\u5340\u9810\u5831","NAME":"\u6c60\u4e0a\u5340-\u6c34\u7a3b","county":"\u81fa\u6771\u7e23","town":"\u6c60\u4e0a\u9109","longitude":"121.20696","latitude":"23.12402"}}},"\u6771\u6cb3\u9109":{"\u9109\u93ae\u9810\u5831":{"\u81fa\u6771\u7e23\u6771\u6cb3\u9109":{"ID":"10014070","type":"\u9109\u93ae\u9810\u5831","NAME":"\u6771\u6cb3\u9109","county":"\u81fa\u6771\u7e23","town":"\u6771\u6cb3\u9109","longitude":"121.29465","latitude":"22.97053"}},"\u4f5c\u7269\u5c08\u5340\u9810\u5831":{"\u6771\u6cb3\u9109\u756a-\u8354\u679d":{"ID":"L096","type":"\u4f5c\u7269\u5c08\u5340\u9810\u5831","NAME":"\u6771\u6cb3\u9109\u756a-\u8354\u679d","county":"\u81fa\u6771\u7e23","town":"\u6771\u6cb3\u9109","longitude":"121.29465","latitude":"22.97053"}}},"\u9577\u6ff1\u9109":{"\u9109\u93ae\u9810\u5831":{"\u81fa\u6771\u7e23\u9577\u6ff1\u9109":{"ID":"10014080","type":"\u9109\u93ae\u9810\u5831","NAME":"\u9577\u6ff1\u9109","county":"\u81fa\u6771\u7e23","town":"\u9577\u6ff1\u9109","longitude":"121.44332","latitude":"23.31679"}}},"\u592a\u9ebb\u91cc\u9109":{"\u9109\u93ae\u9810\u5831":{"\u81fa\u6771\u7e23\u592a\u9ebb\u91cc\u9109":{"ID":"10014090","type":"\u9109\u93ae\u9810\u5831","NAME":"\u592a\u9ebb\u91cc\u9109","county":"\u81fa\u6771\u7e23","town":"\u592a\u9ebb\u91cc\u9109","longitude":"120.99956","latitude":"22.61729"}},"\u4f5c\u7269\u5c08\u5340\u9810\u5831":{"\u592a\u9ebb\u91cc\u9109-\u756a\u8354\u679d":{"ID":"L095","type":"\u4f5c\u7269\u5c08\u5340\u9810\u5831","NAME":"\u592a\u9ebb\u91cc\u9109-\u756a\u8354\u679d","county":"\u81fa\u6771\u7e23","town":"\u592a\u9ebb\u91cc\u9109","longitude":"120.99956","latitude":"22.61729"}}},"\u5927\u6b66\u9109":{"\u9109\u93ae\u9810\u5831":{"\u81fa\u6771\u7e23\u5927\u6b66\u9109":{"ID":"10014100","type":"\u9109\u93ae\u9810\u5831","NAME":"\u5927\u6b66\u9109","county":"\u81fa\u6771\u7e23","town":"\u5927\u6b66\u9109","longitude":"120.88204","latitude":"22.34228"}}},"\u7da0\u5cf6\u9109":{"\u9109\u93ae\u9810\u5831":{"\u81fa\u6771\u7e23\u7da0\u5cf6\u9109":{"ID":"10014110","type":"\u9109\u93ae\u9810\u5831","NAME":"\u7da0\u5cf6\u9109","county":"\u81fa\u6771\u7e23","town":"\u7da0\u5cf6\u9109","longitude":"121.46048","latitude":"22.67072"}}},"\u6d77\u7aef\u9109":{"\u9109\u93ae\u9810\u5831":{"\u81fa\u6771\u7e23\u6d77\u7aef\u9109":{"ID":"10014120","type":"\u9109\u93ae\u9810\u5831","NAME":"\u6d77\u7aef\u9109","county":"\u81fa\u6771\u7e23","town":"\u6d77\u7aef\u9109","longitude":"121.16858","latitude":"23.10379"}}},"\u5ef6\u5e73\u9109":{"\u9109\u93ae\u9810\u5831":{"\u81fa\u6771\u7e23\u5ef6\u5e73\u9109":{"ID":"10014130","type":"\u9109\u93ae\u9810\u5831","NAME":"\u5ef6\u5e73\u9109","county":"\u81fa\u6771\u7e23","town":"\u5ef6\u5e73\u9109","longitude":"121.07765","latitude":"22.90412"}}},"\u91d1\u5cf0\u9109":{"\u9109\u93ae\u9810\u5831":{"\u81fa\u6771\u7e23\u91d1\u5cf0\u9109":{"ID":"10014140","type":"\u9109\u93ae\u9810\u5831","NAME":"\u91d1\u5cf0\u9109","county":"\u81fa\u6771\u7e23","town":"\u91d1\u5cf0\u9109","longitude":"120.95278","latitude":"22.59648"}}},"\u9054\u4ec1\u9109":{"\u9109\u93ae\u9810\u5831":{"\u81fa\u6771\u7e23\u9054\u4ec1\u9109":{"ID":"10014150","type":"\u9109\u93ae\u9810\u5831","NAME":"\u9054\u4ec1\u9109","county":"\u81fa\u6771\u7e23","town":"\u9054\u4ec1\u9109","longitude":"120.87492","latitude":"22.29859"}}},"\u862d\u5dbc\u9109":{"\u9109\u93ae\u9810\u5831":{"\u81fa\u6771\u7e23\u862d\u5dbc\u9109":{"ID":"10014160","type":"\u9109\u93ae\u9810\u5831","NAME":"\u862d\u5dbc\u9109","county":"\u81fa\u6771\u7e23","town":"\u862d\u5dbc\u9109","longitude":"121.55778","latitude":"22.02472"}}}},"\u82b1\u84ee\u7e23":{"\u82b1\u84ee\u5e02":{"\u9109\u93ae\u9810\u5831":{"\u82b1\u84ee\u7e23\u82b1\u84ee\u5e02":{"ID":"10015010","type":"\u9109\u93ae\u9810\u5831","NAME":"\u82b1\u84ee\u5e02","county":"\u82b1\u84ee\u7e23","town":"\u82b1\u84ee\u5e02","longitude":"121.59864","latitude":"23.98390"}}},"\u9cf3\u6797\u93ae":{"\u9109\u93ae\u9810\u5831":{"\u82b1\u84ee\u7e23\u9cf3\u6797\u93ae":{"ID":"10015020","type":"\u9109\u93ae\u9810\u5831","NAME":"\u9cf3\u6797\u93ae","county":"\u82b1\u84ee\u7e23","town":"\u9cf3\u6797\u93ae","longitude":"121.44370","latitude":"23.74648"}},"\u4f5c\u7269\u5c08\u5340\u9810\u5831":{"\u9cf3\u6797\u93ae-\u897f\u74dc":{"ID":"L029","type":"\u4f5c\u7269\u5c08\u5340\u9810\u5831","NAME":"\u9cf3\u6797\u93ae-\u897f\u74dc","county":"\u82b1\u84ee\u7e23","town":"\u9cf3\u6797\u93ae","longitude":"121.44370","latitude":"23.74648"}}},"\u7389\u91cc\u93ae":{"\u9109\u93ae\u9810\u5831":{"\u82b1\u84ee\u7e23\u7389\u91cc\u93ae":{"ID":"10015030","type":"\u9109\u93ae\u9810\u5831","NAME":"\u7389\u91cc\u93ae","county":"\u82b1\u84ee\u7e23","town":"\u7389\u91cc\u93ae","longitude":"121.30721","latitude":"23.33734"}}},"\u65b0\u57ce\u9109":{"\u9109\u93ae\u9810\u5831":{"\u82b1\u84ee\u7e23\u65b0\u57ce\u9109":{"ID":"10015040","type":"\u9109\u93ae\u9810\u5831","NAME":"\u65b0\u57ce\u9109","county":"\u82b1\u84ee\u7e23","town":"\u65b0\u57ce\u9109","longitude":"121.59623","latitude":"24.04126"}}},"\u5409\u5b89\u9109":{"\u9109\u93ae\u9810\u5831":{"\u82b1\u84ee\u7e23\u5409\u5b89\u9109":{"ID":"10015050","type":"\u9109\u93ae\u9810\u5831","NAME":"\u5409\u5b89\u9109","county":"\u82b1\u84ee\u7e23","town":"\u5409\u5b89\u9109","longitude":"121.55554","latitude":"23.97477"}},"\u4f5c\u7269\u5c08\u5340\u9810\u5831":{"\u5409\u5b89\u9109-\u828b\u982d":{"ID":"L081","type":"\u4f5c\u7269\u5c08\u5340\u9810\u5831","NAME":"\u5409\u5b89\u9109-\u828b\u982d","county":"\u82b1\u84ee\u7e23","town":"\u5409\u5b89\u9109","longitude":"121.55554","latitude":"23.97477"},"\u82b1\u84ee\u5340\u8fb2\u696d\u6539\u826f\u5834-\u672c\u5834":{"ID":"M006","type":"\u4f5c\u7269\u5c08\u5340\u9810\u5831","NAME":"\u82b1\u84ee\u5340\u8fb2\u696d\u6539\u826f\u5834-\u672c\u5834","county":"\u82b1\u84ee\u7e23","town":"\u5409\u5b89\u9109","longitude":"121.55554","latitude":"23.97477"}}},"\u58fd\u8c50\u9109":{"\u9109\u93ae\u9810\u5831":{"\u82b1\u84ee\u7e23\u58fd\u8c50\u9109":{"ID":"10015060","type":"\u9109\u93ae\u9810\u5831","NAME":"\u58fd\u8c50\u9109","county":"\u82b1\u84ee\u7e23","town":"\u58fd\u8c50\u9109","longitude":"121.50074","latitude":"23.87201"}}},"\u5149\u5fa9\u9109":{"\u9109\u93ae\u9810\u5831":{"\u82b1\u84ee\u7e23\u5149\u5fa9\u9109":{"ID":"10015070","type":"\u9109\u93ae\u9810\u5831","NAME":"\u5149\u5fa9\u9109","county":"\u82b1\u84ee\u7e23","town":"\u5149\u5fa9\u9109","longitude":"121.41512","latitude":"23.67112"}}},"\u8c50\u6ff1\u9109":{"\u9109\u93ae\u9810\u5831":{"\u82b1\u84ee\u7e23\u8c50\u6ff1\u9109":{"ID":"10015080","type":"\u9109\u93ae\u9810\u5831","NAME":"\u8c50\u6ff1\u9109","county":"\u82b1\u84ee\u7e23","town":"\u8c50\u6ff1\u9109","longitude":"121.51301","latitude":"23.60309"}}},"\u745e\u7a57\u9109":{"\u9109\u93ae\u9810\u5831":{"\u82b1\u84ee\u7e23\u745e\u7a57\u9109":{"ID":"10015090","type":"\u9109\u93ae\u9810\u5831","NAME":"\u745e\u7a57\u9109","county":"\u82b1\u84ee\u7e23","town":"\u745e\u7a57\u9109","longitude":"121.36787","latitude":"23.49847"}},"\u4f5c\u7269\u5c08\u5340\u9810\u5831":{"\u745e\u7a57\u9109-\u6587\u65e6\u67da":{"ID":"L002","type":"\u4f5c\u7269\u5c08\u5340\u9810\u5831","NAME":"\u745e\u7a57\u9109-\u6587\u65e6\u67da","county":"\u82b1\u84ee\u7e23","town":"\u745e\u7a57\u9109","longitude":"121.36787","latitude":"23.49847"},"\u745e\u7a57\u9109-\u4e73\u725b":{"ID":"P002","type":"\u4f5c\u7269\u5c08\u5340\u9810\u5831","NAME":"\u745e\u7a57\u9109-\u4e73\u725b","county":"\u82b1\u84ee\u7e23","town":"\u745e\u7a57\u9109","longitude":"121.36787","latitude":"23.49847"}}},"\u5bcc\u91cc\u9109":{"\u9109\u93ae\u9810\u5831":{"\u82b1\u84ee\u7e23\u5bcc\u91cc\u9109":{"ID":"10015100","type":"\u9109\u93ae\u9810\u5831","NAME":"\u5bcc\u91cc\u9109","county":"\u82b1\u84ee\u7e23","town":"\u5bcc\u91cc\u9109","longitude":"121.24213","latitude":"23.18122"}},"\u4f5c\u7269\u5c08\u5340\u9810\u5831":{"\u5bcc\u91cc\u9109-\u6c34\u7a3b":{"ID":"L072","type":"\u4f5c\u7269\u5c08\u5340\u9810\u5831","NAME":"\u5bcc\u91cc\u9109-\u6c34\u7a3b","county":"\u82b1\u84ee\u7e23","town":"\u5bcc\u91cc\u9109","longitude":"121.24213","latitude":"23.18122"}}},"\u79c0\u6797\u9109":{"\u9109\u93ae\u9810\u5831":{"\u82b1\u84ee\u7e23\u79c0\u6797\u9109":{"ID":"10015110","type":"\u9109\u93ae\u9810\u5831","NAME":"\u79c0\u6797\u9109","county":"\u82b1\u84ee\u7e23","town":"\u79c0\u6797\u9109","longitude":"121.61674","latitude":"24.12056"}}},"\u842c\u69ae\u9109":{"\u9109\u93ae\u9810\u5831":{"\u82b1\u84ee\u7e23\u842c\u69ae\u9109":{"ID":"10015120","type":"\u9109\u93ae\u9810\u5831","NAME":"\u842c\u69ae\u9109","county":"\u82b1\u84ee\u7e23","town":"\u842c\u69ae\u9109","longitude":"121.40280","latitude":"23.71658"}}},"\u5353\u6eaa\u9109":{"\u9109\u93ae\u9810\u5831":{"\u82b1\u84ee\u7e23\u5353\u6eaa\u9109":{"ID":"10015130","type":"\u9109\u93ae\u9810\u5831","NAME":"\u5353\u6eaa\u9109","county":"\u82b1\u84ee\u7e23","town":"\u5353\u6eaa\u9109","longitude":"121.29535","latitude":"23.34827"}}}},"\u6f8e\u6e56\u7e23":{"\u99ac\u516c\u5e02":{"\u9109\u93ae\u9810\u5831":{"\u6f8e\u6e56\u7e23\u99ac\u516c\u5e02":{"ID":"10016010","type":"\u9109\u93ae\u9810\u5831","NAME":"\u99ac\u516c\u5e02","county":"\u6f8e\u6e56\u7e23","town":"\u99ac\u516c\u5e02","longitude":"119.57067","latitude":"23.56755"}}},"\u6e56\u897f\u9109":{"\u9109\u93ae\u9810\u5831":{"\u6f8e\u6e56\u7e23\u6e56\u897f\u9109":{"ID":"10016020","type":"\u9109\u93ae\u9810\u5831","NAME":"\u6e56\u897f\u9109","county":"\u6f8e\u6e56\u7e23","town":"\u6e56\u897f\u9109","longitude":"119.64458","latitude":"23.58536"}},"\u4f5c\u7269\u5c08\u5340\u9810\u5831":{"\u6e56\u897f\u9109\u843d-\u82b1\u751f":{"ID":"L097","type":"\u4f5c\u7269\u5c08\u5340\u9810\u5831","NAME":"\u6e56\u897f\u9109\u843d-\u82b1\u751f","county":"\u6f8e\u6e56\u7e23","town":"\u6e56\u897f\u9109","longitude":"119.64458","latitude":"23.58536"}}},"\u767d\u6c99\u9109":{"\u9109\u93ae\u9810\u5831":{"\u6f8e\u6e56\u7e23\u767d\u6c99\u9109":{"ID":"10016030","type":"\u9109\u93ae\u9810\u5831","NAME":"\u767d\u6c99\u9109","county":"\u6f8e\u6e56\u7e23","town":"\u767d\u6c99\u9109","longitude":"119.59050","latitude":"23.66824"}}},"\u897f\u5dbc\u9109":{"\u9109\u93ae\u9810\u5831":{"\u6f8e\u6e56\u7e23\u897f\u5dbc\u9109":{"ID":"10016040","type":"\u9109\u93ae\u9810\u5831","NAME":"\u897f\u5dbc\u9109","county":"\u6f8e\u6e56\u7e23","town":"\u897f\u5dbc\u9109","longitude":"119.49879","latitude":"23.60269"}}},"\u671b\u5b89\u9109":{"\u9109\u93ae\u9810\u5831":{"\u6f8e\u6e56\u7e23\u671b\u5b89\u9109":{"ID":"10016050","type":"\u9109\u93ae\u9810\u5831","NAME":"\u671b\u5b89\u9109","county":"\u6f8e\u6e56\u7e23","town":"\u671b\u5b89\u9109","longitude":"119.49236","latitude":"23.35912"}}},"\u4e03\u7f8e\u9109":{"\u9109\u93ae\u9810\u5831":{"\u6f8e\u6e56\u7e23\u4e03\u7f8e\u9109":{"ID":"10016060","type":"\u9109\u93ae\u9810\u5831","NAME":"\u4e03\u7f8e\u9109","county":"\u6f8e\u6e56\u7e23","town":"\u4e03\u7f8e\u9109","longitude":"119.41653","latitude":"23.20843"}}}},"\u57fa\u9686\u5e02":{"\u4e2d\u6b63\u5340":{"\u9109\u93ae\u9810\u5831":{"\u57fa\u9686\u5e02\u4e2d\u6b63\u5340":{"ID":"10017010","type":"\u9109\u93ae\u9810\u5831","NAME":"\u4e2d\u6b63\u5340","county":"\u57fa\u9686\u5e02","town":"\u4e2d\u6b63\u5340","longitude":"121.75935","latitude":"25.15319"}}},"\u4e03\u5835\u5340":{"\u9109\u93ae\u9810\u5831":{"\u57fa\u9686\u5e02\u4e03\u5835\u5340":{"ID":"10017020","type":"\u9109\u93ae\u9810\u5831","NAME":"\u4e03\u5835\u5340","county":"\u57fa\u9686\u5e02","town":"\u4e03\u5835\u5340","longitude":"121.70503","latitude":"25.09764"}}},"\u6696\u6696\u5340":{"\u9109\u93ae\u9810\u5831":{"\u57fa\u9686\u5e02\u6696\u6696\u5340":{"ID":"10017030","type":"\u9109\u93ae\u9810\u5831","NAME":"\u6696\u6696\u5340","county":"\u57fa\u9686\u5e02","town":"\u6696\u6696\u5340","longitude":"121.72765","latitude":"25.10191"}}},"\u4ec1\u611b\u5340":{"\u9109\u93ae\u9810\u5831":{"\u57fa\u9686\u5e02\u4ec1\u611b\u5340":{"ID":"10017040","type":"\u9109\u93ae\u9810\u5831","NAME":"\u4ec1\u611b\u5340","county":"\u57fa\u9686\u5e02","town":"\u4ec1\u611b\u5340","longitude":"121.73259","latitude":"25.12944"}}},"\u4e2d\u5c71\u5340":{"\u9109\u93ae\u9810\u5831":{"\u57fa\u9686\u5e02\u4e2d\u5c71\u5340":{"ID":"10017050","type":"\u9109\u93ae\u9810\u5831","NAME":"\u4e2d\u5c71\u5340","county":"\u57fa\u9686\u5e02","town":"\u4e2d\u5c71\u5340","longitude":"121.72146","latitude":"25.15474"}}},"\u5b89\u6a02\u5340":{"\u9109\u93ae\u9810\u5831":{"\u57fa\u9686\u5e02\u5b89\u6a02\u5340":{"ID":"10017060","type":"\u9109\u93ae\u9810\u5831","NAME":"\u5b89\u6a02\u5340","county":"\u57fa\u9686\u5e02","town":"\u5b89\u6a02\u5340","longitude":"121.71504","latitude":"25.12282"}}},"\u4fe1\u7fa9\u5340":{"\u9109\u93ae\u9810\u5831":{"\u57fa\u9686\u5e02\u4fe1\u7fa9\u5340":{"ID":"10017070","type":"\u9109\u93ae\u9810\u5831","NAME":"\u4fe1\u7fa9\u5340","county":"\u57fa\u9686\u5e02","town":"\u4fe1\u7fa9\u5340","longitude":"121.74310","latitude":"25.13132"}}}},"\u65b0\u7af9\u5e02":{"\u6771\u5340":{"\u9109\u93ae\u9810\u5831":{"\u65b0\u7af9\u5e02\u6771\u5340":{"ID":"10018010","type":"\u9109\u93ae\u9810\u5831","NAME":"\u6771\u5340","county":"\u65b0\u7af9\u5e02","town":"\u6771\u5340","longitude":"120.96530","latitude":"24.80700"}}},"\u5317\u5340":{"\u9109\u93ae\u9810\u5831":{"\u65b0\u7af9\u5e02\u5317\u5340":{"ID":"10018020","type":"\u9109\u93ae\u9810\u5831","NAME":"\u5317\u5340","county":"\u65b0\u7af9\u5e02","town":"\u5317\u5340","longitude":"120.96211","latitude":"24.81811"}}},"\u9999\u5c71\u5340":{"\u9109\u93ae\u9810\u5831":{"\u65b0\u7af9\u5e02\u9999\u5c71\u5340":{"ID":"10018030","type":"\u9109\u93ae\u9810\u5831","NAME":"\u9999\u5c71\u5340","county":"\u65b0\u7af9\u5e02","town":"\u9999\u5c71\u5340","longitude":"120.93377","latitude":"24.79879"}}}},"\u5609\u7fa9\u5e02":{"\u6771\u5340":{"\u9109\u93ae\u9810\u5831":{"\u5609\u7fa9\u5e02\u6771\u5340":{"ID":"10020010","type":"\u9109\u93ae\u9810\u5831","NAME":"\u6771\u5340","county":"\u5609\u7fa9\u5e02","town":"\u6771\u5340","longitude":"120.44536","latitude":"23.48038"}},"\u4f5c\u7269\u5c08\u5340\u9810\u5831":{"\u8fb2\u696d\u8a66\u9a57\u6240-\u5609\u7fa9\u5206\u6240":{"ID":"M011","type":"\u4f5c\u7269\u5c08\u5340\u9810\u5831","NAME":"\u8fb2\u696d\u8a66\u9a57\u6240-\u5609\u7fa9\u5206\u6240","county":"\u5609\u7fa9\u5e02","town":"\u6771\u5340","longitude":"120.44536","latitude":"23.48038"}}},"\u897f\u5340":{"\u9109\u93ae\u9810\u5831":{"\u5609\u7fa9\u5e02\u897f\u5340":{"ID":"10020020","type":"\u9109\u93ae\u9810\u5831","NAME":"\u897f\u5340","county":"\u5609\u7fa9\u5e02","town":"\u897f\u5340","longitude":"120.42728","latitude":"23.46627"}}}},"\u81fa\u5317\u5e02":{"\u677e\u5c71\u5340":{"\u9109\u93ae\u9810\u5831":{"\u81fa\u5317\u5e02\u677e\u5c71\u5340":{"ID":"63000010","type":"\u9109\u93ae\u9810\u5831","NAME":"\u677e\u5c71\u5340","county":"\u81fa\u5317\u5e02","town":"\u677e\u5c71\u5340","longitude":"121.56898","latitude":"25.05161"}}},"\u4fe1\u7fa9\u5340":{"\u9109\u93ae\u9810\u5831":{"\u81fa\u5317\u5e02\u4fe1\u7fa9\u5340":{"ID":"63000020","type":"\u9109\u93ae\u9810\u5831","NAME":"\u4fe1\u7fa9\u5340","county":"\u81fa\u5317\u5e02","town":"\u4fe1\u7fa9\u5340","longitude":"121.55874","latitude":"25.03509"}}},"\u5927\u5b89\u5340":{"\u9109\u93ae\u9810\u5831":{"\u81fa\u5317\u5e02\u5927\u5b89\u5340":{"ID":"63000030","type":"\u9109\u93ae\u9810\u5831","NAME":"\u5927\u5b89\u5340","county":"\u81fa\u5317\u5e02","town":"\u5927\u5b89\u5340","longitude":"121.52640","latitude":"25.02825"}}},"\u4e2d\u5c71\u5340":{"\u9109\u93ae\u9810\u5831":{"\u81fa\u5317\u5e02\u4e2d\u5c71\u5340":{"ID":"63000040","type":"\u9109\u93ae\u9810\u5831","NAME":"\u4e2d\u5c71\u5340","county":"\u81fa\u5317\u5e02","town":"\u4e2d\u5c71\u5340","longitude":"121.52535","latitude":"25.06626"}}},"\u4e2d\u6b63\u5340":{"\u9109\u93ae\u9810\u5831":{"\u81fa\u5317\u5e02\u4e2d\u6b63\u5340":{"ID":"63000050","type":"\u9109\u93ae\u9810\u5831","NAME":"\u4e2d\u6b63\u5340","county":"\u81fa\u5317\u5e02","town":"\u4e2d\u6b63\u5340","longitude":"121.51006","latitude":"25.03407"}}},"\u5927\u540c\u5340":{"\u9109\u93ae\u9810\u5831":{"\u81fa\u5317\u5e02\u5927\u540c\u5340":{"ID":"63000060","type":"\u9109\u93ae\u9810\u5831","NAME":"\u5927\u540c\u5340","county":"\u81fa\u5317\u5e02","town":"\u5927\u540c\u5340","longitude":"121.50723","latitude":"25.06802"}}},"\u842c\u83ef\u5340":{"\u9109\u93ae\u9810\u5831":{"\u81fa\u5317\u5e02\u842c\u83ef\u5340":{"ID":"63000070","type":"\u9109\u93ae\u9810\u5831","NAME":"\u842c\u83ef\u5340","county":"\u81fa\u5317\u5e02","town":"\u842c\u83ef\u5340","longitude":"121.49162","latitude":"25.03672"}}},"\u6587\u5c71\u5340":{"\u9109\u93ae\u9810\u5831":{"\u81fa\u5317\u5e02\u6587\u5c71\u5340":{"ID":"63000080","type":"\u9109\u93ae\u9810\u5831","NAME":"\u6587\u5c71\u5340","county":"\u81fa\u5317\u5e02","town":"\u6587\u5c71\u5340","longitude":"121.56176","latitude":"24.99136"}}},"\u5357\u6e2f\u5340":{"\u9109\u93ae\u9810\u5831":{"\u81fa\u5317\u5e02\u5357\u6e2f\u5340":{"ID":"63000090","type":"\u9109\u93ae\u9810\u5831","NAME":"\u5357\u6e2f\u5340","county":"\u81fa\u5317\u5e02","town":"\u5357\u6e2f\u5340","longitude":"121.59849","latitude":"25.05632"}}},"\u5167\u6e56\u5340":{"\u9109\u93ae\u9810\u5831":{"\u81fa\u5317\u5e02\u5167\u6e56\u5340":{"ID":"63000100","type":"\u9109\u93ae\u9810\u5831","NAME":"\u5167\u6e56\u5340","county":"\u81fa\u5317\u5e02","town":"\u5167\u6e56\u5340","longitude":"121.58069","latitude":"25.07118"}}},"\u58eb\u6797\u5340":{"\u9109\u93ae\u9810\u5831":{"\u81fa\u5317\u5e02\u58eb\u6797\u5340":{"ID":"63000110","type":"\u9109\u93ae\u9810\u5831","NAME":"\u58eb\u6797\u5340","county":"\u81fa\u5317\u5e02","town":"\u58eb\u6797\u5340","longitude":"121.51146","latitude":"25.09461"}}},"\u5317\u6295\u5340":{"\u9109\u93ae\u9810\u5831":{"\u81fa\u5317\u5e02\u5317\u6295\u5340":{"ID":"63000120","type":"\u9109\u93ae\u9810\u5831","NAME":"\u5317\u6295\u5340","county":"\u81fa\u5317\u5e02","town":"\u5317\u6295\u5340","longitude":"121.49460","latitude":"25.13413"}},"\u4f5c\u7269\u5c08\u5340\u9810\u5831":{"\u5317\u6295\u5340-\u6c34\u7a3b":{"ID":"L100","type":"\u4f5c\u7269\u5c08\u5340\u9810\u5831","NAME":"\u5317\u6295\u5340-\u6c34\u7a3b","county":"\u81fa\u5317\u5e02","town":"\u5317\u6295\u5340","longitude":"121.49460","latitude":"25.13413"}}}},"\u9ad8\u96c4\u5e02":{"\u9e7d\u57d5\u5340":{"\u9109\u93ae\u9810\u5831":{"\u9ad8\u96c4\u5e02\u9e7d\u57d5\u5340":{"ID":"64000010","type":"\u9109\u93ae\u9810\u5831","NAME":"\u9e7d\u57d5\u5340","county":"\u9ad8\u96c4\u5e02","town":"\u9e7d\u57d5\u5340","longitude":"120.27871","latitude":"22.62650"}}},"\u9f13\u5c71\u5340":{"\u9109\u93ae\u9810\u5831":{"\u9ad8\u96c4\u5e02\u9f13\u5c71\u5340":{"ID":"64000020","type":"\u9109\u93ae\u9810\u5831","NAME":"\u9f13\u5c71\u5340","county":"\u9ad8\u96c4\u5e02","town":"\u9f13\u5c71\u5340","longitude":"120.27302","latitude":"22.63858"}}},"\u5de6\u71df\u5340":{"\u9109\u93ae\u9810\u5831":{"\u9ad8\u96c4\u5e02\u5de6\u71df\u5340":{"ID":"64000030","type":"\u9109\u93ae\u9810\u5831","NAME":"\u5de6\u71df\u5340","county":"\u9ad8\u96c4\u5e02","town":"\u5de6\u71df\u5340","longitude":"120.28704","latitude":"22.69159"}}},"\u6960\u6893\u5340":{"\u9109\u93ae\u9810\u5831":{"\u9ad8\u96c4\u5e02\u6960\u6893\u5340":{"ID":"64000040","type":"\u9109\u93ae\u9810\u5831","NAME":"\u6960\u6893\u5340","county":"\u9ad8\u96c4\u5e02","town":"\u6960\u6893\u5340","longitude":"120.31827","latitude":"22.73025"}}},"\u4e09\u6c11\u5340":{"\u9109\u93ae\u9810\u5831":{"\u9ad8\u96c4\u5e02\u4e09\u6c11\u5340":{"ID":"64000050","type":"\u9109\u93ae\u9810\u5831","NAME":"\u4e09\u6c11\u5340","county":"\u9ad8\u96c4\u5e02","town":"\u4e09\u6c11\u5340","longitude":"120.29174","latitude":"22.64937"}}},"\u65b0\u8208\u5340":{"\u9109\u93ae\u9810\u5831":{"\u9ad8\u96c4\u5e02\u65b0\u8208\u5340":{"ID":"64000060","type":"\u9109\u93ae\u9810\u5831","NAME":"\u65b0\u8208\u5340","county":"\u9ad8\u96c4\u5e02","town":"\u65b0\u8208\u5340","longitude":"120.30195","latitude":"22.63276"}}},"\u524d\u91d1\u5340":{"\u9109\u93ae\u9810\u5831":{"\u9ad8\u96c4\u5e02\u524d\u91d1\u5340":{"ID":"64000070","type":"\u9109\u93ae\u9810\u5831","NAME":"\u524d\u91d1\u5340","county":"\u9ad8\u96c4\u5e02","town":"\u524d\u91d1\u5340","longitude":"120.28615","latitude":"22.62918"}}},"\u82d3\u96c5\u5340":{"\u9109\u93ae\u9810\u5831":{"\u9ad8\u96c4\u5e02\u82d3\u96c5\u5340":{"ID":"64000080","type":"\u9109\u93ae\u9810\u5831","NAME":"\u82d3\u96c5\u5340","county":"\u9ad8\u96c4\u5e02","town":"\u82d3\u96c5\u5340","longitude":"120.30409","latitude":"22.62351"}}},"\u524d\u93ae\u5340":{"\u9109\u93ae\u9810\u5831":{"\u9ad8\u96c4\u5e02\u524d\u93ae\u5340":{"ID":"64000090","type":"\u9109\u93ae\u9810\u5831","NAME":"\u524d\u93ae\u5340","county":"\u9ad8\u96c4\u5e02","town":"\u524d\u93ae\u5340","longitude":"120.31024","latitude":"22.58833"}}},"\u65d7\u6d25\u5340":{"\u9109\u93ae\u9810\u5831":{"\u9ad8\u96c4\u5e02\u65d7\u6d25\u5340":{"ID":"64000100","type":"\u9109\u93ae\u9810\u5831","NAME":"\u65d7\u6d25\u5340","county":"\u9ad8\u96c4\u5e02","town":"\u65d7\u6d25\u5340","longitude":"120.25986","latitude":"22.61267"}}},"\u5c0f\u6e2f\u5340":{"\u9109\u93ae\u9810\u5831":{"\u9ad8\u96c4\u5e02\u5c0f\u6e2f\u5340":{"ID":"64000110","type":"\u9109\u93ae\u9810\u5831","NAME":"\u5c0f\u6e2f\u5340","county":"\u9ad8\u96c4\u5e02","town":"\u5c0f\u6e2f\u5340","longitude":"120.33014","latitude":"22.56716"}}},"\u9cf3\u5c71\u5340":{"\u9109\u93ae\u9810\u5831":{"\u9ad8\u96c4\u5e02\u9cf3\u5c71\u5340":{"ID":"64000120","type":"\u9109\u93ae\u9810\u5831","NAME":"\u9cf3\u5c71\u5340","county":"\u9ad8\u96c4\u5e02","town":"\u9cf3\u5c71\u5340","longitude":"120.35433","latitude":"22.62895"}},"\u4f5c\u7269\u5c08\u5340\u9810\u5831":{"\u8fb2\u696d\u8a66\u9a57\u6240-\u9cf3\u5c71\u5206\u6240":{"ID":"M010","type":"\u4f5c\u7269\u5c08\u5340\u9810\u5831","NAME":"\u8fb2\u696d\u8a66\u9a57\u6240-\u9cf3\u5c71\u5206\u6240","county":"\u9ad8\u96c4\u5e02","town":"\u9cf3\u5c71\u5340","longitude":"120.35433","latitude":"22.62895"}}},"\u6797\u5712\u5340":{"\u9109\u93ae\u9810\u5831":{"\u9ad8\u96c4\u5e02\u6797\u5712\u5340":{"ID":"64000130","type":"\u9109\u93ae\u9810\u5831","NAME":"\u6797\u5712\u5340","county":"\u9ad8\u96c4\u5e02","town":"\u6797\u5712\u5340","longitude":"120.38671","latitude":"22.50974"}}},"\u5927\u5bee\u5340":{"\u9109\u93ae\u9810\u5831":{"\u9ad8\u96c4\u5e02\u5927\u5bee\u5340":{"ID":"64000140","type":"\u9109\u93ae\u9810\u5831","NAME":"\u5927\u5bee\u5340","county":"\u9ad8\u96c4\u5e02","town":"\u5927\u5bee\u5340","longitude":"120.38743","latitude":"22.60713"}},"\u4f5c\u7269\u5c08\u5340\u9810\u5831":{"\u5927\u5bee\u5340-\u6c34\u7a3b":{"ID":"L105","type":"\u4f5c\u7269\u5c08\u5340\u9810\u5831","NAME":"\u5927\u5bee\u5340-\u6c34\u7a3b","county":"\u9ad8\u96c4\u5e02","town":"\u5927\u5bee\u5340","longitude":"120.38743","latitude":"22.60713"}}},"\u5927\u6a39\u5340":{"\u9109\u93ae\u9810\u5831":{"\u9ad8\u96c4\u5e02\u5927\u6a39\u5340":{"ID":"64000150","type":"\u9109\u93ae\u9810\u5831","NAME":"\u5927\u6a39\u5340","county":"\u9ad8\u96c4\u5e02","town":"\u5927\u6a39\u5340","longitude":"120.42500","latitude":"22.69514"}},"\u4f5c\u7269\u5c08\u5340\u9810\u5831":{"\u5927\u6a39\u5340-\u8354\u679d":{"ID":"L007","type":"\u4f5c\u7269\u5c08\u5340\u9810\u5831","NAME":"\u5927\u6a39\u5340-\u8354\u679d","county":"\u9ad8\u96c4\u5e02","town":"\u5927\u6a39\u5340","longitude":"120.42500","latitude":"22.69514"}}},"\u5927\u793e\u5340":{"\u9109\u93ae\u9810\u5831":{"\u9ad8\u96c4\u5e02\u5927\u793e\u5340":{"ID":"64000160","type":"\u9109\u93ae\u9810\u5831","NAME":"\u5927\u793e\u5340","county":"\u9ad8\u96c4\u5e02","town":"\u5927\u793e\u5340","longitude":"120.33856","latitude":"22.73183"}}},"\u4ec1\u6b66\u5340":{"\u9109\u93ae\u9810\u5831":{"\u9ad8\u96c4\u5e02\u4ec1\u6b66\u5340":{"ID":"64000170","type":"\u9109\u93ae\u9810\u5831","NAME":"\u4ec1\u6b66\u5340","county":"\u9ad8\u96c4\u5e02","town":"\u4ec1\u6b66\u5340","longitude":"120.33958","latitude":"22.70305"}}},"\u9ce5\u677e\u5340":{"\u9109\u93ae\u9810\u5831":{"\u9ad8\u96c4\u5e02\u9ce5\u677e\u5340":{"ID":"64000180","type":"\u9109\u93ae\u9810\u5831","NAME":"\u9ce5\u677e\u5340","county":"\u9ad8\u96c4\u5e02","town":"\u9ce5\u677e\u5340","longitude":"120.35627","latitude":"22.66158"}}},"\u5ca1\u5c71\u5340":{"\u9109\u93ae\u9810\u5831":{"\u9ad8\u96c4\u5e02\u5ca1\u5c71\u5340":{"ID":"64000190","type":"\u9109\u93ae\u9810\u5831","NAME":"\u5ca1\u5c71\u5340","county":"\u9ad8\u96c4\u5e02","town":"\u5ca1\u5c71\u5340","longitude":"120.28693","latitude":"22.79910"}}},"\u6a4b\u982d\u5340":{"\u9109\u93ae\u9810\u5831":{"\u9ad8\u96c4\u5e02\u6a4b\u982d\u5340":{"ID":"64000200","type":"\u9109\u93ae\u9810\u5831","NAME":"\u6a4b\u982d\u5340","county":"\u9ad8\u96c4\u5e02","town":"\u6a4b\u982d\u5340","longitude":"120.29769","latitude":"22.75932"}}},"\u71d5\u5de2\u5340":{"\u9109\u93ae\u9810\u5831":{"\u9ad8\u96c4\u5e02\u71d5\u5de2\u5340":{"ID":"64000210","type":"\u9109\u93ae\u9810\u5831","NAME":"\u71d5\u5de2\u5340","county":"\u9ad8\u96c4\u5e02","town":"\u71d5\u5de2\u5340","longitude":"120.35401","latitude":"22.79511"}},"\u4f5c\u7269\u5c08\u5340\u9810\u5831":{"\u71d5\u5de2\u5340-\u756a\u77f3\u69b4":{"ID":"L013","type":"\u4f5c\u7269\u5c08\u5340\u9810\u5831","NAME":"\u71d5\u5de2\u5340-\u756a\u77f3\u69b4","county":"\u9ad8\u96c4\u5e02","town":"\u71d5\u5de2\u5340","longitude":"120.35401","latitude":"22.79511"},"\u71d5\u5de2\u5340-\u68d7":{"ID":"L022","type":"\u4f5c\u7269\u5c08\u5340\u9810\u5831","NAME":"\u71d5\u5de2\u5340-\u68d7","county":"\u9ad8\u96c4\u5e02","town":"\u71d5\u5de2\u5340","longitude":"120.35401","latitude":"22.79511"}}},"\u7530\u5bee\u5340":{"\u9109\u93ae\u9810\u5831":{"\u9ad8\u96c4\u5e02\u7530\u5bee\u5340":{"ID":"64000220","type":"\u9109\u93ae\u9810\u5831","NAME":"\u7530\u5bee\u5340","county":"\u9ad8\u96c4\u5e02","town":"\u7530\u5bee\u5340","longitude":"120.35133","latitude":"22.87159"}}},"\u963f\u84ee\u5340":{"\u9109\u93ae\u9810\u5831":{"\u9ad8\u96c4\u5e02\u963f\u84ee\u5340":{"ID":"64000230","type":"\u9109\u93ae\u9810\u5831","NAME":"\u963f\u84ee\u5340","county":"\u9ad8\u96c4\u5e02","town":"\u963f\u84ee\u5340","longitude":"120.31923","latitude":"22.88489"}}},"\u8def\u7af9\u5340":{"\u9109\u93ae\u9810\u5831":{"\u9ad8\u96c4\u5e02\u8def\u7af9\u5340":{"ID":"64000240","type":"\u9109\u93ae\u9810\u5831","NAME":"\u8def\u7af9\u5340","county":"\u9ad8\u96c4\u5e02","town":"\u8def\u7af9\u5340","longitude":"120.25118","latitude":"22.85639"}}},"\u6e56\u5167\u5340":{"\u9109\u93ae\u9810\u5831":{"\u9ad8\u96c4\u5e02\u6e56\u5167\u5340":{"ID":"64000250","type":"\u9109\u93ae\u9810\u5831","NAME":"\u6e56\u5167\u5340","county":"\u9ad8\u96c4\u5e02","town":"\u6e56\u5167\u5340","longitude":"120.20365","latitude":"22.91013"}}},"\u8304\u8423\u5340":{"\u9109\u93ae\u9810\u5831":{"\u9ad8\u96c4\u5e02\u8304\u8423\u5340":{"ID":"64000260","type":"\u9109\u93ae\u9810\u5831","NAME":"\u8304\u8423\u5340","county":"\u9ad8\u96c4\u5e02","town":"\u8304\u8423\u5340","longitude":"120.17443","latitude":"22.90852"}}},"\u6c38\u5b89\u5340":{"\u9109\u93ae\u9810\u5831":{"\u9ad8\u96c4\u5e02\u6c38\u5b89\u5340":{"ID":"64000270","type":"\u9109\u93ae\u9810\u5831","NAME":"\u6c38\u5b89\u5340","county":"\u9ad8\u96c4\u5e02","town":"\u6c38\u5b89\u5340","longitude":"120.21619","latitude":"22.82002"}}},"\u5f4c\u9640\u5340":{"\u9109\u93ae\u9810\u5831":{"\u9ad8\u96c4\u5e02\u5f4c\u9640\u5340":{"ID":"64000280","type":"\u9109\u93ae\u9810\u5831","NAME":"\u5f4c\u9640\u5340","county":"\u9ad8\u96c4\u5e02","town":"\u5f4c\u9640\u5340","longitude":"120.24256","latitude":"22.78321"}}},"\u6893\u5b98\u5340":{"\u9109\u93ae\u9810\u5831":{"\u9ad8\u96c4\u5e02\u6893\u5b98\u5340":{"ID":"64000290","type":"\u9109\u93ae\u9810\u5831","NAME":"\u6893\u5b98\u5340","county":"\u9ad8\u96c4\u5e02","town":"\u6893\u5b98\u5340","longitude":"120.25921","latitude":"22.76245"}}},"\u65d7\u5c71\u5340":{"\u9109\u93ae\u9810\u5831":{"\u9ad8\u96c4\u5e02\u65d7\u5c71\u5340":{"ID":"64000300","type":"\u9109\u93ae\u9810\u5831","NAME":"\u65d7\u5c71\u5340","county":"\u9ad8\u96c4\u5e02","town":"\u65d7\u5c71\u5340","longitude":"120.47540","latitude":"22.89039"}},"\u4f5c\u7269\u5c08\u5340\u9810\u5831":{"\u65d7\u5c71\u5340-\u9999\u8549":{"ID":"L020","type":"\u4f5c\u7269\u5c08\u5340\u9810\u5831","NAME":"\u65d7\u5c71\u5340-\u9999\u8549","county":"\u9ad8\u96c4\u5e02","town":"\u65d7\u5c71\u5340","longitude":"120.47540","latitude":"22.89039"},"\u65d7\u5c71\u5340-\u6bdb\u8c46":{"ID":"L057","type":"\u4f5c\u7269\u5c08\u5340\u9810\u5831","NAME":"\u65d7\u5c71\u5340-\u6bdb\u8c46","county":"\u9ad8\u96c4\u5e02","town":"\u65d7\u5c71\u5340","longitude":"120.47540","latitude":"22.89039"}}},"\u7f8e\u6fc3\u5340":{"\u9109\u93ae\u9810\u5831":{"\u9ad8\u96c4\u5e02\u7f8e\u6fc3\u5340":{"ID":"64000310","type":"\u9109\u93ae\u9810\u5831","NAME":"\u7f8e\u6fc3\u5340","county":"\u9ad8\u96c4\u5e02","town":"\u7f8e\u6fc3\u5340","longitude":"120.53378","latitude":"22.89652"}},"\u4f5c\u7269\u5c08\u5340\u9810\u5831":{"\u7f8e\u6fc3\u5340-\u756a\u8304":{"ID":"L031","type":"\u4f5c\u7269\u5c08\u5340\u9810\u5831","NAME":"\u7f8e\u6fc3\u5340-\u756a\u8304","county":"\u9ad8\u96c4\u5e02","town":"\u7f8e\u6fc3\u5340","longitude":"120.53378","latitude":"22.89652"}}},"\u516d\u9f9c\u5340":{"\u9109\u93ae\u9810\u5831":{"\u9ad8\u96c4\u5e02\u516d\u9f9c\u5340":{"ID":"64000320","type":"\u9109\u93ae\u9810\u5831","NAME":"\u516d\u9f9c\u5340","county":"\u9ad8\u96c4\u5e02","town":"\u516d\u9f9c\u5340","longitude":"120.62464","latitude":"23.00018"}},"\u4f5c\u7269\u5c08\u5340\u9810\u5831":{"\u516d\u9f9c\u5340-\u84ee\u9727":{"ID":"L086","type":"\u4f5c\u7269\u5c08\u5340\u9810\u5831","NAME":"\u516d\u9f9c\u5340-\u84ee\u9727","county":"\u9ad8\u96c4\u5e02","town":"\u516d\u9f9c\u5340","longitude":"120.62464","latitude":"23.00018"}}},"\u7532\u4ed9\u5340":{"\u9109\u93ae\u9810\u5831":{"\u9ad8\u96c4\u5e02\u7532\u4ed9\u5340":{"ID":"64000330","type":"\u9109\u93ae\u9810\u5831","NAME":"\u7532\u4ed9\u5340","county":"\u9ad8\u96c4\u5e02","town":"\u7532\u4ed9\u5340","longitude":"120.57981","latitude":"23.08582"}}},"\u6749\u6797\u5340":{"\u9109\u93ae\u9810\u5831":{"\u9ad8\u96c4\u5e02\u6749\u6797\u5340":{"ID":"64000340","type":"\u9109\u93ae\u9810\u5831","NAME":"\u6749\u6797\u5340","county":"\u9ad8\u96c4\u5e02","town":"\u6749\u6797\u5340","longitude":"120.53193","latitude":"22.97353"}}},"\u5167\u9580\u5340":{"\u9109\u93ae\u9810\u5831":{"\u9ad8\u96c4\u5e02\u5167\u9580\u5340":{"ID":"64000350","type":"\u9109\u93ae\u9810\u5831","NAME":"\u5167\u9580\u5340","county":"\u9ad8\u96c4\u5e02","town":"\u5167\u9580\u5340","longitude":"120.45455","latitude":"22.94459"}},"\u4f5c\u7269\u5c08\u5340\u9810\u5831":{"\u5167\u9580\u5340-\u706b\u9db4\u82b1":{"ID":"L043","type":"\u4f5c\u7269\u5c08\u5340\u9810\u5831","NAME":"\u5167\u9580\u5340-\u706b\u9db4\u82b1","county":"\u9ad8\u96c4\u5e02","town":"\u5167\u9580\u5340","longitude":"120.45455","latitude":"22.94459"}}},"\u8302\u6797\u5340":{"\u9109\u93ae\u9810\u5831":{"\u9ad8\u96c4\u5e02\u8302\u6797\u5340":{"ID":"64000360","type":"\u9109\u93ae\u9810\u5831","NAME":"\u8302\u6797\u5340","county":"\u9ad8\u96c4\u5e02","town":"\u8302\u6797\u5340","longitude":"120.65562","latitude":"22.88808"}}},"\u6843\u6e90\u5340":{"\u9109\u93ae\u9810\u5831":{"\u9ad8\u96c4\u5e02\u6843\u6e90\u5340":{"ID":"64000370","type":"\u9109\u93ae\u9810\u5831","NAME":"\u6843\u6e90\u5340","county":"\u9ad8\u96c4\u5e02","town":"\u6843\u6e90\u5340","longitude":"120.75606","latitude":"23.16102"}}},"\u90a3\u746a\u590f\u5340":{"\u9109\u93ae\u9810\u5831":{"\u9ad8\u96c4\u5e02\u90a3\u746a\u590f\u5340":{"ID":"64000380","type":"\u9109\u93ae\u9810\u5831","NAME":"\u90a3\u746a\u590f\u5340","county":"\u9ad8\u96c4\u5e02","town":"\u90a3\u746a\u590f\u5340","longitude":"120.68870","latitude":"23.24003"}}}},"\u65b0\u5317\u5e02":{"\u677f\u6a4b\u5340":{"\u9109\u93ae\u9810\u5831":{"\u65b0\u5317\u5e02\u677f\u6a4b\u5340":{"ID":"65000010","type":"\u9109\u93ae\u9810\u5831","NAME":"\u677f\u6a4b\u5340","county":"\u65b0\u5317\u5e02","town":"\u677f\u6a4b\u5340","longitude":"121.45089","latitude":"25.01154"}}},"\u4e09\u91cd\u5340":{"\u9109\u93ae\u9810\u5831":{"\u65b0\u5317\u5e02\u4e09\u91cd\u5340":{"ID":"65000020","type":"\u9109\u93ae\u9810\u5831","NAME":"\u4e09\u91cd\u5340","county":"\u65b0\u5317\u5e02","town":"\u4e09\u91cd\u5340","longitude":"121.48010","latitude":"25.06273"}}},"\u4e2d\u548c\u5340":{"\u9109\u93ae\u9810\u5831":{"\u65b0\u5317\u5e02\u4e2d\u548c\u5340":{"ID":"65000030","type":"\u9109\u93ae\u9810\u5831","NAME":"\u4e2d\u548c\u5340","county":"\u65b0\u5317\u5e02","town":"\u4e2d\u548c\u5340","longitude":"121.49279","latitude":"25.00044"}}},"\u6c38\u548c\u5340":{"\u9109\u93ae\u9810\u5831":{"\u65b0\u5317\u5e02\u6c38\u548c\u5340":{"ID":"65000040","type":"\u9109\u93ae\u9810\u5831","NAME":"\u6c38\u548c\u5340","county":"\u65b0\u5317\u5e02","town":"\u6c38\u548c\u5340","longitude":"121.51198","latitude":"25.01093"}}},"\u65b0\u838a\u5340":{"\u9109\u93ae\u9810\u5831":{"\u65b0\u5317\u5e02\u65b0\u838a\u5340":{"ID":"65000050","type":"\u9109\u93ae\u9810\u5831","NAME":"\u65b0\u838a\u5340","county":"\u65b0\u5317\u5e02","town":"\u65b0\u838a\u5340","longitude":"121.44233","latitude":"25.03765"}}},"\u65b0\u5e97\u5340":{"\u9109\u93ae\u9810\u5831":{"\u65b0\u5317\u5e02\u65b0\u5e97\u5340":{"ID":"65000060","type":"\u9109\u93ae\u9810\u5831","NAME":"\u65b0\u5e97\u5340","county":"\u65b0\u5317\u5e02","town":"\u65b0\u5e97\u5340","longitude":"121.53340","latitude":"24.96916"}}},"\u6a39\u6797\u5340":{"\u9109\u93ae\u9810\u5831":{"\u65b0\u5317\u5e02\u6a39\u6797\u5340":{"ID":"65000070","type":"\u9109\u93ae\u9810\u5831","NAME":"\u6a39\u6797\u5340","county":"\u65b0\u5317\u5e02","town":"\u6a39\u6797\u5340","longitude":"121.41659","latitude":"24.99175"}}},"\u9daf\u6b4c\u5340":{"\u9109\u93ae\u9810\u5831":{"\u65b0\u5317\u5e02\u9daf\u6b4c\u5340":{"ID":"65000080","type":"\u9109\u93ae\u9810\u5831","NAME":"\u9daf\u6b4c\u5340","county":"\u65b0\u5317\u5e02","town":"\u9daf\u6b4c\u5340","longitude":"121.34615","latitude":"24.95783"}},"\u4f5c\u7269\u5c08\u5340\u9810\u5831":{"\u9daf\u6b4c\u5340-\u6c34\u7a3b":{"ID":"L104","type":"\u4f5c\u7269\u5c08\u5340\u9810\u5831","NAME":"\u9daf\u6b4c\u5340-\u6c34\u7a3b","county":"\u65b0\u5317\u5e02","town":"\u9daf\u6b4c\u5340","longitude":"121.34615","latitude":"24.95783"}}},"\u4e09\u5cfd\u5340":{"\u9109\u93ae\u9810\u5831":{"\u65b0\u5317\u5e02\u4e09\u5cfd\u5340":{"ID":"65000090","type":"\u9109\u93ae\u9810\u5831","NAME":"\u4e09\u5cfd\u5340","county":"\u65b0\u5317\u5e02","town":"\u4e09\u5cfd\u5340","longitude":"121.36084","latitude":"24.93606"}}},"\u6de1\u6c34\u5340":{"\u9109\u93ae\u9810\u5831":{"\u65b0\u5317\u5e02\u6de1\u6c34\u5340":{"ID":"65000100","type":"\u9109\u93ae\u9810\u5831","NAME":"\u6de1\u6c34\u5340","county":"\u65b0\u5317\u5e02","town":"\u6de1\u6c34\u5340","longitude":"121.43303","latitude":"25.17135"}}},"\u6c50\u6b62\u5340":{"\u9109\u93ae\u9810\u5831":{"\u65b0\u5317\u5e02\u6c50\u6b62\u5340":{"ID":"65000110","type":"\u9109\u93ae\u9810\u5831","NAME":"\u6c50\u6b62\u5340","county":"\u65b0\u5317\u5e02","town":"\u6c50\u6b62\u5340","longitude":"121.65074","latitude":"25.06560"}}},"\u745e\u82b3\u5340":{"\u9109\u93ae\u9810\u5831":{"\u65b0\u5317\u5e02\u745e\u82b3\u5340":{"ID":"65000120","type":"\u9109\u93ae\u9810\u5831","NAME":"\u745e\u82b3\u5340","county":"\u65b0\u5317\u5e02","town":"\u745e\u82b3\u5340","longitude":"121.80175","latitude":"25.11068"}}},"\u571f\u57ce\u5340":{"\u9109\u93ae\u9810\u5831":{"\u65b0\u5317\u5e02\u571f\u57ce\u5340":{"ID":"65000130","type":"\u9109\u93ae\u9810\u5831","NAME":"\u571f\u57ce\u5340","county":"\u65b0\u5317\u5e02","town":"\u571f\u57ce\u5340","longitude":"121.43471","latitude":"24.97417"}}},"\u8606\u6d32\u5340":{"\u9109\u93ae\u9810\u5831":{"\u65b0\u5317\u5e02\u8606\u6d32\u5340":{"ID":"65000140","type":"\u9109\u93ae\u9810\u5831","NAME":"\u8606\u6d32\u5340","county":"\u65b0\u5317\u5e02","town":"\u8606\u6d32\u5340","longitude":"121.46566","latitude":"25.08666"}}},"\u4e94\u80a1\u5340":{"\u9109\u93ae\u9810\u5831":{"\u65b0\u5317\u5e02\u4e94\u80a1\u5340":{"ID":"65000150","type":"\u9109\u93ae\u9810\u5831","NAME":"\u4e94\u80a1\u5340","county":"\u65b0\u5317\u5e02","town":"\u4e94\u80a1\u5340","longitude":"121.42969","latitude":"25.08497"}}},"\u6cf0\u5c71\u5340":{"\u9109\u93ae\u9810\u5831":{"\u65b0\u5317\u5e02\u6cf0\u5c71\u5340":{"ID":"65000160","type":"\u9109\u93ae\u9810\u5831","NAME":"\u6cf0\u5c71\u5340","county":"\u65b0\u5317\u5e02","town":"\u6cf0\u5c71\u5340","longitude":"121.42329","latitude":"25.06112"}}},"\u6797\u53e3\u5340":{"\u9109\u93ae\u9810\u5831":{"\u65b0\u5317\u5e02\u6797\u53e3\u5340":{"ID":"65000170","type":"\u9109\u93ae\u9810\u5831","NAME":"\u6797\u53e3\u5340","county":"\u65b0\u5317\u5e02","town":"\u6797\u53e3\u5340","longitude":"121.38057","latitude":"25.07871"}}},"\u6df1\u5751\u5340":{"\u9109\u93ae\u9810\u5831":{"\u65b0\u5317\u5e02\u6df1\u5751\u5340":{"ID":"65000180","type":"\u9109\u93ae\u9810\u5831","NAME":"\u6df1\u5751\u5340","county":"\u65b0\u5317\u5e02","town":"\u6df1\u5751\u5340","longitude":"121.60765","latitude":"25.00423"}}},"\u77f3\u7887\u5340":{"\u9109\u93ae\u9810\u5831":{"\u65b0\u5317\u5e02\u77f3\u7887\u5340":{"ID":"65000190","type":"\u9109\u93ae\u9810\u5831","NAME":"\u77f3\u7887\u5340","county":"\u65b0\u5317\u5e02","town":"\u77f3\u7887\u5340","longitude":"121.64970","latitude":"24.99330"}}},"\u576a\u6797\u5340":{"\u9109\u93ae\u9810\u5831":{"\u65b0\u5317\u5e02\u576a\u6797\u5340":{"ID":"65000200","type":"\u9109\u93ae\u9810\u5831","NAME":"\u576a\u6797\u5340","county":"\u65b0\u5317\u5e02","town":"\u576a\u6797\u5340","longitude":"121.70358","latitude":"24.93792"}}},"\u4e09\u829d\u5340":{"\u9109\u93ae\u9810\u5831":{"\u65b0\u5317\u5e02\u4e09\u829d\u5340":{"ID":"65000210","type":"\u9109\u93ae\u9810\u5831","NAME":"\u4e09\u829d\u5340","county":"\u65b0\u5317\u5e02","town":"\u4e09\u829d\u5340","longitude":"121.49265","latitude":"25.25957"}}},"\u77f3\u9580\u5340":{"\u9109\u93ae\u9810\u5831":{"\u65b0\u5317\u5e02\u77f3\u9580\u5340":{"ID":"65000220","type":"\u9109\u93ae\u9810\u5831","NAME":"\u77f3\u9580\u5340","county":"\u65b0\u5317\u5e02","town":"\u77f3\u9580\u5340","longitude":"121.55941","latitude":"25.29305"}}},"\u516b\u91cc\u5340":{"\u9109\u93ae\u9810\u5831":{"\u65b0\u5317\u5e02\u516b\u91cc\u5340":{"ID":"65000230","type":"\u9109\u93ae\u9810\u5831","NAME":"\u516b\u91cc\u5340","county":"\u65b0\u5317\u5e02","town":"\u516b\u91cc\u5340","longitude":"121.39324","latitude":"25.15117"}},"\u4f5c\u7269\u5c08\u5340\u9810\u5831":{"\u516b\u91cc\u5340-\u6587\u65e6\u67da":{"ID":"L076","type":"\u4f5c\u7269\u5c08\u5340\u9810\u5831","NAME":"\u516b\u91cc\u5340-\u6587\u65e6\u67da","county":"\u65b0\u5317\u5e02","town":"\u516b\u91cc\u5340","longitude":"121.39324","latitude":"25.15117"}}},"\u5e73\u6eaa\u5340":{"\u9109\u93ae\u9810\u5831":{"\u65b0\u5317\u5e02\u5e73\u6eaa\u5340":{"ID":"65000240","type":"\u9109\u93ae\u9810\u5831","NAME":"\u5e73\u6eaa\u5340","county":"\u65b0\u5317\u5e02","town":"\u5e73\u6eaa\u5340","longitude":"121.72997","latitude":"25.02840"}}},"\u96d9\u6eaa\u5340":{"\u9109\u93ae\u9810\u5831":{"\u65b0\u5317\u5e02\u96d9\u6eaa\u5340":{"ID":"65000250","type":"\u9109\u93ae\u9810\u5831","NAME":"\u96d9\u6eaa\u5340","county":"\u65b0\u5317\u5e02","town":"\u96d9\u6eaa\u5340","longitude":"121.85755","latitude":"25.03558"}}},"\u8ca2\u5bee\u5340":{"\u9109\u93ae\u9810\u5831":{"\u65b0\u5317\u5e02\u8ca2\u5bee\u5340":{"ID":"65000260","type":"\u9109\u93ae\u9810\u5831","NAME":"\u8ca2\u5bee\u5340","county":"\u65b0\u5317\u5e02","town":"\u8ca2\u5bee\u5340","longitude":"121.90207","latitude":"25.02364"}}},"\u91d1\u5c71\u5340":{"\u9109\u93ae\u9810\u5831":{"\u65b0\u5317\u5e02\u91d1\u5c71\u5340":{"ID":"65000270","type":"\u9109\u93ae\u9810\u5831","NAME":"\u91d1\u5c71\u5340","county":"\u65b0\u5317\u5e02","town":"\u91d1\u5c71\u5340","longitude":"121.62834","latitude":"25.22416"}}},"\u842c\u91cc\u5340":{"\u9109\u93ae\u9810\u5831":{"\u65b0\u5317\u5e02\u842c\u91cc\u5340":{"ID":"65000280","type":"\u9109\u93ae\u9810\u5831","NAME":"\u842c\u91cc\u5340","county":"\u65b0\u5317\u5e02","town":"\u842c\u91cc\u5340","longitude":"121.68136","latitude":"25.17982"}}},"\u70cf\u4f86\u5340":{"\u9109\u93ae\u9810\u5831":{"\u65b0\u5317\u5e02\u70cf\u4f86\u5340":{"ID":"65000290","type":"\u9109\u93ae\u9810\u5831","NAME":"\u70cf\u4f86\u5340","county":"\u65b0\u5317\u5e02","town":"\u70cf\u4f86\u5340","longitude":"121.53996","latitude":"24.87369"}}}},"\u81fa\u4e2d\u5e02":{"\u4e2d\u5340":{"\u9109\u93ae\u9810\u5831":{"\u81fa\u4e2d\u5e02\u4e2d\u5340":{"ID":"66000010","type":"\u9109\u93ae\u9810\u5831","NAME":"\u4e2d\u5340","county":"\u81fa\u4e2d\u5e02","town":"\u4e2d\u5340","longitude":"120.67124","latitude":"24.14570"}}},"\u6771\u5340":{"\u9109\u93ae\u9810\u5831":{"\u81fa\u4e2d\u5e02\u6771\u5340":{"ID":"66000020","type":"\u9109\u93ae\u9810\u5831","NAME":"\u6771\u5340","county":"\u81fa\u4e2d\u5e02","town":"\u6771\u5340","longitude":"120.69550","latitude":"24.13843"}}},"\u5357\u5340":{"\u9109\u93ae\u9810\u5831":{"\u81fa\u4e2d\u5e02\u5357\u5340":{"ID":"66000030","type":"\u9109\u93ae\u9810\u5831","NAME":"\u5357\u5340","county":"\u81fa\u4e2d\u5e02","town":"\u5357\u5340","longitude":"120.65567","latitude":"24.11884"}}},"\u897f\u5340":{"\u9109\u93ae\u9810\u5831":{"\u81fa\u4e2d\u5e02\u897f\u5340":{"ID":"66000040","type":"\u9109\u93ae\u9810\u5831","NAME":"\u897f\u5340","county":"\u81fa\u4e2d\u5e02","town":"\u897f\u5340","longitude":"120.66295","latitude":"24.14292"}}},"\u5317\u5340":{"\u9109\u93ae\u9810\u5831":{"\u81fa\u4e2d\u5e02\u5317\u5340":{"ID":"66000050","type":"\u9109\u93ae\u9810\u5831","NAME":"\u5317\u5340","county":"\u81fa\u4e2d\u5e02","town":"\u5317\u5340","longitude":"120.67395","latitude":"24.16775"}}},"\u897f\u5c6f\u5340":{"\u9109\u93ae\u9810\u5831":{"\u81fa\u4e2d\u5e02\u897f\u5c6f\u5340":{"ID":"66000060","type":"\u9109\u93ae\u9810\u5831","NAME":"\u897f\u5c6f\u5340","county":"\u81fa\u4e2d\u5e02","town":"\u897f\u5c6f\u5340","longitude":"120.62558","latitude":"24.16728"}}},"\u5357\u5c6f\u5340":{"\u9109\u93ae\u9810\u5831":{"\u81fa\u4e2d\u5e02\u5357\u5c6f\u5340":{"ID":"66000070","type":"\u9109\u93ae\u9810\u5831","NAME":"\u5357\u5c6f\u5340","county":"\u81fa\u4e2d\u5e02","town":"\u5357\u5c6f\u5340","longitude":"120.63465","latitude":"24.14006"}}},"\u5317\u5c6f\u5340":{"\u9109\u93ae\u9810\u5831":{"\u81fa\u4e2d\u5e02\u5317\u5c6f\u5340":{"ID":"66000080","type":"\u9109\u93ae\u9810\u5831","NAME":"\u5317\u5c6f\u5340","county":"\u81fa\u4e2d\u5e02","town":"\u5317\u5c6f\u5340","longitude":"120.67837","latitude":"24.18473"}}},"\u8c50\u539f\u5340":{"\u9109\u93ae\u9810\u5831":{"\u81fa\u4e2d\u5e02\u8c50\u539f\u5340":{"ID":"66000090","type":"\u9109\u93ae\u9810\u5831","NAME":"\u8c50\u539f\u5340","county":"\u81fa\u4e2d\u5e02","town":"\u8c50\u539f\u5340","longitude":"120.71000","latitude":"24.24389"}}},"\u6771\u52e2\u5340":{"\u9109\u93ae\u9810\u5831":{"\u81fa\u4e2d\u5e02\u6771\u52e2\u5340":{"ID":"66000100","type":"\u9109\u93ae\u9810\u5831","NAME":"\u6771\u52e2\u5340","county":"\u81fa\u4e2d\u5e02","town":"\u6771\u52e2\u5340","longitude":"120.81976","latitude":"24.26033"}},"\u4f5c\u7269\u5c08\u5340\u9810\u5831":{"\u6771\u52e2\u5340-\u68a8":{"ID":"L009","type":"\u4f5c\u7269\u5c08\u5340\u9810\u5831","NAME":"\u6771\u52e2\u5340-\u68a8","county":"\u81fa\u4e2d\u5e02","town":"\u6771\u52e2\u5340","longitude":"120.81976","latitude":"24.26033"},"\u6771\u52e2\u5340-\u692a\u67d1":{"ID":"L024","type":"\u4f5c\u7269\u5c08\u5340\u9810\u5831","NAME":"\u6771\u52e2\u5340-\u692a\u67d1","county":"\u81fa\u4e2d\u5e02","town":"\u6771\u52e2\u5340","longitude":"120.81976","latitude":"24.26033"}}},"\u5927\u7532\u5340":{"\u9109\u93ae\u9810\u5831":{"\u81fa\u4e2d\u5e02\u5927\u7532\u5340":{"ID":"66000110","type":"\u9109\u93ae\u9810\u5831","NAME":"\u5927\u7532\u5340","county":"\u81fa\u4e2d\u5e02","town":"\u5927\u7532\u5340","longitude":"120.61429","latitude":"24.35084"}},"\u4f5c\u7269\u5c08\u5340\u9810\u5831":{"\u5927\u7532\u5340-\u828b\u982d":{"ID":"L075","type":"\u4f5c\u7269\u5c08\u5340\u9810\u5831","NAME":"\u5927\u7532\u5340-\u828b\u982d","county":"\u81fa\u4e2d\u5e02","town":"\u5927\u7532\u5340","longitude":"120.61429","latitude":"24.35084"}}},"\u6e05\u6c34\u5340":{"\u9109\u93ae\u9810\u5831":{"\u81fa\u4e2d\u5e02\u6e05\u6c34\u5340":{"ID":"66000120","type":"\u9109\u93ae\u9810\u5831","NAME":"\u6e05\u6c34\u5340","county":"\u81fa\u4e2d\u5e02","town":"\u6e05\u6c34\u5340","longitude":"120.55163","latitude":"24.27017"}}},"\u6c99\u9e7f\u5340":{"\u9109\u93ae\u9810\u5831":{"\u81fa\u4e2d\u5e02\u6c99\u9e7f\u5340":{"ID":"66000130","type":"\u9109\u93ae\u9810\u5831","NAME":"\u6c99\u9e7f\u5340","county":"\u81fa\u4e2d\u5e02","town":"\u6c99\u9e7f\u5340","longitude":"120.55813","latitude":"24.23508"}}},"\u68a7\u68f2\u5340":{"\u9109\u93ae\u9810\u5831":{"\u81fa\u4e2d\u5e02\u68a7\u68f2\u5340":{"ID":"66000140","type":"\u9109\u93ae\u9810\u5831","NAME":"\u68a7\u68f2\u5340","county":"\u81fa\u4e2d\u5e02","town":"\u68a7\u68f2\u5340","longitude":"120.52371","latitude":"24.25666"}}},"\u540e\u91cc\u5340":{"\u9109\u93ae\u9810\u5831":{"\u81fa\u4e2d\u5e02\u540e\u91cc\u5340":{"ID":"66000150","type":"\u9109\u93ae\u9810\u5831","NAME":"\u540e\u91cc\u5340","county":"\u81fa\u4e2d\u5e02","town":"\u540e\u91cc\u5340","longitude":"120.70257","latitude":"24.30670"}},"\u4f5c\u7269\u5c08\u5340\u9810\u5831":{"\u540e\u91cc\u5340-\u767e\u5408":{"ID":"L044","type":"\u4f5c\u7269\u5c08\u5340\u9810\u5831","NAME":"\u540e\u91cc\u5340-\u767e\u5408","county":"\u81fa\u4e2d\u5e02","town":"\u540e\u91cc\u5340","longitude":"120.70257","latitude":"24.30670"}}},"\u795e\u5ca1\u5340":{"\u9109\u93ae\u9810\u5831":{"\u81fa\u4e2d\u5e02\u795e\u5ca1\u5340":{"ID":"66000160","type":"\u9109\u93ae\u9810\u5831","NAME":"\u795e\u5ca1\u5340","county":"\u81fa\u4e2d\u5e02","town":"\u795e\u5ca1\u5340","longitude":"120.65323","latitude":"24.25957"}}},"\u6f6d\u5b50\u5340":{"\u9109\u93ae\u9810\u5831":{"\u81fa\u4e2d\u5e02\u6f6d\u5b50\u5340":{"ID":"66000170","type":"\u9109\u93ae\u9810\u5831","NAME":"\u6f6d\u5b50\u5340","county":"\u81fa\u4e2d\u5e02","town":"\u6f6d\u5b50\u5340","longitude":"120.69700","latitude":"24.21125"}}},"\u5927\u96c5\u5340":{"\u9109\u93ae\u9810\u5831":{"\u81fa\u4e2d\u5e02\u5927\u96c5\u5340":{"ID":"66000180","type":"\u9109\u93ae\u9810\u5831","NAME":"\u5927\u96c5\u5340","county":"\u81fa\u4e2d\u5e02","town":"\u5927\u96c5\u5340","longitude":"120.63965","latitude":"24.23089"}},"\u4f5c\u7269\u5c08\u5340\u9810\u5831":{"\u5927\u96c5\u5340-\u5c0f\u9ea5":{"ID":"L047","type":"\u4f5c\u7269\u5c08\u5340\u9810\u5831","NAME":"\u5927\u96c5\u5340-\u5c0f\u9ea5","county":"\u81fa\u4e2d\u5e02","town":"\u5927\u96c5\u5340","longitude":"120.63965","latitude":"24.23089"}}},"\u65b0\u793e\u5340":{"\u9109\u93ae\u9810\u5831":{"\u81fa\u4e2d\u5e02\u65b0\u793e\u5340":{"ID":"66000190","type":"\u9109\u93ae\u9810\u5831","NAME":"\u65b0\u793e\u5340","county":"\u81fa\u4e2d\u5e02","town":"\u65b0\u793e\u5340","longitude":"120.80141","latitude":"24.23553"}},"\u4f5c\u7269\u5c08\u5340\u9810\u5831":{"\u65b0\u793e\u5340-\u6587\u5fc3\u862d":{"ID":"L045","type":"\u4f5c\u7269\u5c08\u5340\u9810\u5831","NAME":"\u65b0\u793e\u5340-\u6587\u5fc3\u862d","county":"\u81fa\u4e2d\u5e02","town":"\u65b0\u793e\u5340","longitude":"120.80141","latitude":"24.23553"},"\u65b0\u793e\u5340-\u756a\u8304":{"ID":"L059","type":"\u4f5c\u7269\u5c08\u5340\u9810\u5831","NAME":"\u65b0\u793e\u5340-\u756a\u8304","county":"\u81fa\u4e2d\u5e02","town":"\u65b0\u793e\u5340","longitude":"120.80141","latitude":"24.23553"},"\u7a2e\u82d7\u6539\u826f\u7e41\u6b96\u5834-\u672c\u5834":{"ID":"M009","type":"\u4f5c\u7269\u5c08\u5340\u9810\u5831","NAME":"\u7a2e\u82d7\u6539\u826f\u7e41\u6b96\u5834-\u672c\u5834","county":"\u81fa\u4e2d\u5e02","town":"\u65b0\u793e\u5340","longitude":"120.80141","latitude":"24.23553"}}},"\u77f3\u5ca1\u5340":{"\u9109\u93ae\u9810\u5831":{"\u81fa\u4e2d\u5e02\u77f3\u5ca1\u5340":{"ID":"66000200","type":"\u9109\u93ae\u9810\u5831","NAME":"\u77f3\u5ca1\u5340","county":"\u81fa\u4e2d\u5e02","town":"\u77f3\u5ca1\u5340","longitude":"120.77189","latitude":"24.27669"}}},"\u5916\u57d4\u5340":{"\u9109\u93ae\u9810\u5831":{"\u81fa\u4e2d\u5e02\u5916\u57d4\u5340":{"ID":"66000210","type":"\u9109\u93ae\u9810\u5831","NAME":"\u5916\u57d4\u5340","county":"\u81fa\u4e2d\u5e02","town":"\u5916\u57d4\u5340","longitude":"120.64621","latitude":"24.33380"}}},"\u5927\u5b89\u5340":{"\u9109\u93ae\u9810\u5831":{"\u81fa\u4e2d\u5e02\u5927\u5b89\u5340":{"ID":"66000220","type":"\u9109\u93ae\u9810\u5831","NAME":"\u5927\u5b89\u5340","county":"\u81fa\u4e2d\u5e02","town":"\u5927\u5b89\u5340","longitude":"120.57837","latitude":"24.34796"}}},"\u70cf\u65e5\u5340":{"\u9109\u93ae\u9810\u5831":{"\u81fa\u4e2d\u5e02\u70cf\u65e5\u5340":{"ID":"66000230","type":"\u9109\u93ae\u9810\u5831","NAME":"\u70cf\u65e5\u5340","county":"\u81fa\u4e2d\u5e02","town":"\u70cf\u65e5\u5340","longitude":"120.61558","latitude":"24.10653"}}},"\u5927\u809a\u5340":{"\u9109\u93ae\u9810\u5831":{"\u81fa\u4e2d\u5e02\u5927\u809a\u5340":{"ID":"66000240","type":"\u9109\u93ae\u9810\u5831","NAME":"\u5927\u809a\u5340","county":"\u81fa\u4e2d\u5e02","town":"\u5927\u809a\u5340","longitude":"120.53757","latitude":"24.15289"}}},"\u9f8d\u4e95\u5340":{"\u9109\u93ae\u9810\u5831":{"\u81fa\u4e2d\u5e02\u9f8d\u4e95\u5340":{"ID":"66000250","type":"\u9109\u93ae\u9810\u5831","NAME":"\u9f8d\u4e95\u5340","county":"\u81fa\u4e2d\u5e02","town":"\u9f8d\u4e95\u5340","longitude":"120.53763","latitude":"24.19429"}}},"\u9727\u5cf0\u5340":{"\u9109\u93ae\u9810\u5831":{"\u81fa\u4e2d\u5e02\u9727\u5cf0\u5340":{"ID":"66000260","type":"\u9109\u93ae\u9810\u5831","NAME":"\u9727\u5cf0\u5340","county":"\u81fa\u4e2d\u5e02","town":"\u9727\u5cf0\u5340","longitude":"120.69195","latitude":"24.06282"}},"\u4f5c\u7269\u5c08\u5340\u9810\u5831":{"\u9727\u5cf0\u5340-\u6c34\u7a3b":{"ID":"L052","type":"\u4f5c\u7269\u5c08\u5340\u9810\u5831","NAME":"\u9727\u5cf0\u5340-\u6c34\u7a3b","county":"\u81fa\u4e2d\u5e02","town":"\u9727\u5cf0\u5340","longitude":"120.69195","latitude":"24.06282"},"\u8fb2\u696d\u8a66\u9a57\u6240-\u672c\u6240":{"ID":"M016","type":"\u4f5c\u7269\u5c08\u5340\u9810\u5831","NAME":"\u8fb2\u696d\u8a66\u9a57\u6240-\u672c\u6240","county":"\u81fa\u4e2d\u5e02","town":"\u9727\u5cf0\u5340","longitude":"120.69195","latitude":"24.06282"}}},"\u592a\u5e73\u5340":{"\u9109\u93ae\u9810\u5831":{"\u81fa\u4e2d\u5e02\u592a\u5e73\u5340":{"ID":"66000270","type":"\u9109\u93ae\u9810\u5831","NAME":"\u592a\u5e73\u5340","county":"\u81fa\u4e2d\u5e02","town":"\u592a\u5e73\u5340","longitude":"120.71020","latitude":"24.12815"}},"\u4f5c\u7269\u5c08\u5340\u9810\u5831":{"\u592a\u5e73\u5340-\u8354\u679d":{"ID":"L008","type":"\u4f5c\u7269\u5c08\u5340\u9810\u5831","NAME":"\u592a\u5e73\u5340-\u8354\u679d","county":"\u81fa\u4e2d\u5e02","town":"\u592a\u5e73\u5340","longitude":"120.71020","latitude":"24.12815"},"\u592a\u5e73\u5340-\u6787\u6777":{"ID":"L027","type":"\u4f5c\u7269\u5c08\u5340\u9810\u5831","NAME":"\u592a\u5e73\u5340-\u6787\u6777","county":"\u81fa\u4e2d\u5e02","town":"\u592a\u5e73\u5340","longitude":"120.71020","latitude":"24.12815"}}},"\u5927\u91cc\u5340":{"\u9109\u93ae\u9810\u5831":{"\u81fa\u4e2d\u5e02\u5927\u91cc\u5340":{"ID":"66000280","type":"\u9109\u93ae\u9810\u5831","NAME":"\u5927\u91cc\u5340","county":"\u81fa\u4e2d\u5e02","town":"\u5927\u91cc\u5340","longitude":"120.66950","latitude":"24.10115"}}},"\u548c\u5e73\u5340":{"\u9109\u93ae\u9810\u5831":{"\u81fa\u4e2d\u5e02\u548c\u5e73\u5340":{"ID":"66000290","type":"\u9109\u93ae\u9810\u5831","NAME":"\u548c\u5e73\u5340","county":"\u81fa\u4e2d\u5e02","town":"\u548c\u5e73\u5340","longitude":"120.87546","latitude":"24.17658"}},"\u4f5c\u7269\u5c08\u5340\u9810\u5831":{"\u548c\u5e73\u5340-\u751c\u67ff":{"ID":"L012","type":"\u4f5c\u7269\u5c08\u5340\u9810\u5831","NAME":"\u548c\u5e73\u5340-\u751c\u67ff","county":"\u81fa\u4e2d\u5e02","town":"\u548c\u5e73\u5340","longitude":"120.87546","latitude":"24.17658"}}}},"\u81fa\u5357\u5e02":{"\u65b0\u71df\u5340":{"\u9109\u93ae\u9810\u5831":{"\u81fa\u5357\u5e02\u65b0\u71df\u5340":{"ID":"67000010","type":"\u9109\u93ae\u9810\u5831","NAME":"\u65b0\u71df\u5340","county":"\u81fa\u5357\u5e02","town":"\u65b0\u71df\u5340","longitude":"120.30843","latitude":"23.31183"}}},"\u9e7d\u6c34\u5340":{"\u9109\u93ae\u9810\u5831":{"\u81fa\u5357\u5e02\u9e7d\u6c34\u5340":{"ID":"67000020","type":"\u9109\u93ae\u9810\u5831","NAME":"\u9e7d\u6c34\u5340","county":"\u81fa\u5357\u5e02","town":"\u9e7d\u6c34\u5340","longitude":"120.25808","latitude":"23.32180"}}},"\u767d\u6cb3\u5340":{"\u9109\u93ae\u9810\u5831":{"\u81fa\u5357\u5e02\u767d\u6cb3\u5340":{"ID":"67000030","type":"\u9109\u93ae\u9810\u5831","NAME":"\u767d\u6cb3\u5340","county":"\u81fa\u5357\u5e02","town":"\u767d\u6cb3\u5340","longitude":"120.40753","latitude":"23.35310"}}},"\u67f3\u71df\u5340":{"\u9109\u93ae\u9810\u5831":{"\u81fa\u5357\u5e02\u67f3\u71df\u5340":{"ID":"67000040","type":"\u9109\u93ae\u9810\u5831","NAME":"\u67f3\u71df\u5340","county":"\u81fa\u5357\u5e02","town":"\u67f3\u71df\u5340","longitude":"120.30370","latitude":"23.28028"}}},"\u5f8c\u58c1\u5340":{"\u9109\u93ae\u9810\u5831":{"\u81fa\u5357\u5e02\u5f8c\u58c1\u5340":{"ID":"67000050","type":"\u9109\u93ae\u9810\u5831","NAME":"\u5f8c\u58c1\u5340","county":"\u81fa\u5357\u5e02","town":"\u5f8c\u58c1\u5340","longitude":"120.35319","latitude":"23.36785"}},"\u4f5c\u7269\u5c08\u5340\u9810\u5831":{"\u5f8c\u58c1\u5340-\u862d\u82b1":{"ID":"L046","type":"\u4f5c\u7269\u5c08\u5340\u9810\u5831","NAME":"\u5f8c\u58c1\u5340-\u862d\u82b1","county":"\u81fa\u5357\u5e02","town":"\u5f8c\u58c1\u5340","longitude":"120.35319","latitude":"23.36785"},"\u5f8c\u58c1\u5340-\u6c34\u7a3b":{"ID":"L055","type":"\u4f5c\u7269\u5c08\u5340\u9810\u5831","NAME":"\u5f8c\u58c1\u5340-\u6c34\u7a3b","county":"\u81fa\u5357\u5e02","town":"\u5f8c\u58c1\u5340","longitude":"120.35319","latitude":"23.36785"}}},"\u6771\u5c71\u5340":{"\u9109\u93ae\u9810\u5831":{"\u81fa\u5357\u5e02\u6771\u5c71\u5340":{"ID":"67000060","type":"\u9109\u93ae\u9810\u5831","NAME":"\u6771\u5c71\u5340","county":"\u81fa\u5357\u5e02","town":"\u6771\u5c71\u5340","longitude":"120.39643","latitude":"23.32787"}},"\u4f5c\u7269\u5c08\u5340\u9810\u5831":{"\u6771\u5c71\u5340-\u6d0b\u9999\u74dc":{"ID":"L033","type":"\u4f5c\u7269\u5c08\u5340\u9810\u5831","NAME":"\u6771\u5c71\u5340-\u6d0b\u9999\u74dc","county":"\u81fa\u5357\u5e02","town":"\u6771\u5c71\u5340","longitude":"120.39643","latitude":"23.32787"},"\u6771\u5c71\u5340-\u9f8d\u773c":{"ID":"L073","type":"\u4f5c\u7269\u5c08\u5340\u9810\u5831","NAME":"\u6771\u5c71\u5340-\u9f8d\u773c","county":"\u81fa\u5357\u5e02","town":"\u6771\u5c71\u5340","longitude":"120.39643","latitude":"23.32787"}}},"\u9ebb\u8c46\u5340":{"\u9109\u93ae\u9810\u5831":{"\u81fa\u5357\u5e02\u9ebb\u8c46\u5340":{"ID":"67000070","type":"\u9109\u93ae\u9810\u5831","NAME":"\u9ebb\u8c46\u5340","county":"\u81fa\u5357\u5e02","town":"\u9ebb\u8c46\u5340","longitude":"120.25039","latitude":"23.18670"}},"\u4f5c\u7269\u5c08\u5340\u9810\u5831":{"\u9ebb\u8c46\u5340-\u6587\u65e6\u67da":{"ID":"L001","type":"\u4f5c\u7269\u5c08\u5340\u9810\u5831","NAME":"\u9ebb\u8c46\u5340-\u6587\u65e6\u67da","county":"\u81fa\u5357\u5e02","town":"\u9ebb\u8c46\u5340","longitude":"120.25039","latitude":"23.18670"}}},"\u4e0b\u71df\u5340":{"\u9109\u93ae\u9810\u5831":{"\u81fa\u5357\u5e02\u4e0b\u71df\u5340":{"ID":"67000080","type":"\u9109\u93ae\u9810\u5831","NAME":"\u4e0b\u71df\u5340","county":"\u81fa\u5357\u5e02","town":"\u4e0b\u71df\u5340","longitude":"120.25624","latitude":"23.23738"}}},"\u516d\u7532\u5340":{"\u9109\u93ae\u9810\u5831":{"\u81fa\u5357\u5e02\u516d\u7532\u5340":{"ID":"67000090","type":"\u9109\u93ae\u9810\u5831","NAME":"\u516d\u7532\u5340","county":"\u81fa\u5357\u5e02","town":"\u516d\u7532\u5340","longitude":"120.33936","latitude":"23.23352"}}},"\u5b98\u7530\u5340":{"\u9109\u93ae\u9810\u5831":{"\u81fa\u5357\u5e02\u5b98\u7530\u5340":{"ID":"67000100","type":"\u9109\u93ae\u9810\u5831","NAME":"\u5b98\u7530\u5340","county":"\u81fa\u5357\u5e02","town":"\u5b98\u7530\u5340","longitude":"120.30723","latitude":"23.19499"}},"\u4f5c\u7269\u5c08\u5340\u9810\u5831":{"\u5b98\u7530\u5340-\u8292\u679c":{"ID":"L083","type":"\u4f5c\u7269\u5c08\u5340\u9810\u5831","NAME":"\u5b98\u7530\u5340-\u8292\u679c","county":"\u81fa\u5357\u5e02","town":"\u5b98\u7530\u5340","longitude":"120.30723","latitude":"23.19499"}}},"\u5927\u5167\u5340":{"\u9109\u93ae\u9810\u5831":{"\u81fa\u5357\u5e02\u5927\u5167\u5340":{"ID":"67000110","type":"\u9109\u93ae\u9810\u5831","NAME":"\u5927\u5167\u5340","county":"\u81fa\u5357\u5e02","town":"\u5927\u5167\u5340","longitude":"120.34887","latitude":"23.12071"}},"\u4f5c\u7269\u5c08\u5340\u9810\u5831":{"\u5927\u5167\u5340-\u756a\u6728\u74dc":{"ID":"L088","type":"\u4f5c\u7269\u5c08\u5340\u9810\u5831","NAME":"\u5927\u5167\u5340-\u756a\u6728\u74dc","county":"\u81fa\u5357\u5e02","town":"\u5927\u5167\u5340","longitude":"120.34887","latitude":"23.12071"}}},"\u4f73\u91cc\u5340":{"\u9109\u93ae\u9810\u5831":{"\u81fa\u5357\u5e02\u4f73\u91cc\u5340":{"ID":"67000120","type":"\u9109\u93ae\u9810\u5831","NAME":"\u4f73\u91cc\u5340","county":"\u81fa\u5357\u5e02","town":"\u4f73\u91cc\u5340","longitude":"120.16897","latitude":"23.16704"}}},"\u5b78\u7532\u5340":{"\u9109\u93ae\u9810\u5831":{"\u81fa\u5357\u5e02\u5b78\u7532\u5340":{"ID":"67000130","type":"\u9109\u93ae\u9810\u5831","NAME":"\u5b78\u7532\u5340","county":"\u81fa\u5357\u5e02","town":"\u5b78\u7532\u5340","longitude":"120.17423","latitude":"23.23216"}}},"\u897f\u6e2f\u5340":{"\u9109\u93ae\u9810\u5831":{"\u81fa\u5357\u5e02\u897f\u6e2f\u5340":{"ID":"67000140","type":"\u9109\u93ae\u9810\u5831","NAME":"\u897f\u6e2f\u5340","county":"\u81fa\u5357\u5e02","town":"\u897f\u6e2f\u5340","longitude":"120.19538","latitude":"23.12474"}}},"\u4e03\u80a1\u5340":{"\u9109\u93ae\u9810\u5831":{"\u81fa\u5357\u5e02\u4e03\u80a1\u5340":{"ID":"67000150","type":"\u9109\u93ae\u9810\u5831","NAME":"\u4e03\u80a1\u5340","county":"\u81fa\u5357\u5e02","town":"\u4e03\u80a1\u5340","longitude":"120.13132","latitude":"23.14247"}}},"\u5c07\u8ecd\u5340":{"\u9109\u93ae\u9810\u5831":{"\u81fa\u5357\u5e02\u5c07\u8ecd\u5340":{"ID":"67000160","type":"\u9109\u93ae\u9810\u5831","NAME":"\u5c07\u8ecd\u5340","county":"\u81fa\u5357\u5e02","town":"\u5c07\u8ecd\u5340","longitude":"120.15061","latitude":"23.20065"}}},"\u5317\u9580\u5340":{"\u9109\u93ae\u9810\u5831":{"\u81fa\u5357\u5e02\u5317\u9580\u5340":{"ID":"67000170","type":"\u9109\u93ae\u9810\u5831","NAME":"\u5317\u9580\u5340","county":"\u81fa\u5357\u5e02","town":"\u5317\u9580\u5340","longitude":"120.11730","latitude":"23.26954"}}},"\u65b0\u5316\u5340":{"\u9109\u93ae\u9810\u5831":{"\u81fa\u5357\u5e02\u65b0\u5316\u5340":{"ID":"67000180","type":"\u9109\u93ae\u9810\u5831","NAME":"\u65b0\u5316\u5340","county":"\u81fa\u5357\u5e02","town":"\u65b0\u5316\u5340","longitude":"120.30280","latitude":"23.04028"}},"\u4f5c\u7269\u5c08\u5340\u9810\u5831":{"\u65b0\u5316\u5340-\u7518\u85f7":{"ID":"L049","type":"\u4f5c\u7269\u5c08\u5340\u9810\u5831","NAME":"\u65b0\u5316\u5340-\u7518\u85f7","county":"\u81fa\u5357\u5e02","town":"\u65b0\u5316\u5340","longitude":"120.30280","latitude":"23.04028"},"\u81fa\u5357\u5340\u8fb2\u696d\u6539\u826f\u5834-\u672c\u5834":{"ID":"M004","type":"\u4f5c\u7269\u5c08\u5340\u9810\u5831","NAME":"\u81fa\u5357\u5340\u8fb2\u696d\u6539\u826f\u5834-\u672c\u5834","county":"\u81fa\u5357\u5e02","town":"\u65b0\u5316\u5340","longitude":"120.30280","latitude":"23.04028"},"\u755c\u7522\u8a66\u9a57\u6240-\u672c\u6240":{"ID":"M013","type":"\u4f5c\u7269\u5c08\u5340\u9810\u5831","NAME":"\u755c\u7522\u8a66\u9a57\u6240-\u672c\u6240","county":"\u81fa\u5357\u5e02","town":"\u65b0\u5316\u5340","longitude":"120.30280","latitude":"23.04028"}}},"\u5584\u5316\u5340":{"\u9109\u93ae\u9810\u5831":{"\u81fa\u5357\u5e02\u5584\u5316\u5340":{"ID":"67000190","type":"\u9109\u93ae\u9810\u5831","NAME":"\u5584\u5316\u5340","county":"\u81fa\u5357\u5e02","town":"\u5584\u5316\u5340","longitude":"120.28864","latitude":"23.13408"}}},"\u65b0\u5e02\u5340":{"\u9109\u93ae\u9810\u5831":{"\u81fa\u5357\u5e02\u65b0\u5e02\u5340":{"ID":"67000200","type":"\u9109\u93ae\u9810\u5831","NAME":"\u65b0\u5e02\u5340","county":"\u81fa\u5357\u5e02","town":"\u65b0\u5e02\u5340","longitude":"120.28696","latitude":"23.08067"}}},"\u5b89\u5b9a\u5340":{"\u9109\u93ae\u9810\u5831":{"\u81fa\u5357\u5e02\u5b89\u5b9a\u5340":{"ID":"67000210","type":"\u9109\u93ae\u9810\u5831","NAME":"\u5b89\u5b9a\u5340","county":"\u81fa\u5357\u5e02","town":"\u5b89\u5b9a\u5340","longitude":"120.22893","latitude":"23.12327"}}},"\u5c71\u4e0a\u5340":{"\u9109\u93ae\u9810\u5831":{"\u81fa\u5357\u5e02\u5c71\u4e0a\u5340":{"ID":"67000220","type":"\u9109\u93ae\u9810\u5831","NAME":"\u5c71\u4e0a\u5340","county":"\u81fa\u5357\u5e02","town":"\u5c71\u4e0a\u5340","longitude":"120.34449","latitude":"23.10532"}}},"\u7389\u4e95\u5340":{"\u9109\u93ae\u9810\u5831":{"\u81fa\u5357\u5e02\u7389\u4e95\u5340":{"ID":"67000230","type":"\u9109\u93ae\u9810\u5831","NAME":"\u7389\u4e95\u5340","county":"\u81fa\u5357\u5e02","town":"\u7389\u4e95\u5340","longitude":"120.45202","latitude":"23.12549"}},"\u4f5c\u7269\u5c08\u5340\u9810\u5831":{"\u7389\u4e95\u5340-\u8292\u679c":{"ID":"L004","type":"\u4f5c\u7269\u5c08\u5340\u9810\u5831","NAME":"\u7389\u4e95\u5340-\u8292\u679c","county":"\u81fa\u5357\u5e02","town":"\u7389\u4e95\u5340","longitude":"120.45202","latitude":"23.12549"}}},"\u6960\u897f\u5340":{"\u9109\u93ae\u9810\u5831":{"\u81fa\u5357\u5e02\u6960\u897f\u5340":{"ID":"67000240","type":"\u9109\u93ae\u9810\u5831","NAME":"\u6960\u897f\u5340","county":"\u81fa\u5357\u5e02","town":"\u6960\u897f\u5340","longitude":"120.47826","latitude":"23.17587"}},"\u4f5c\u7269\u5c08\u5340\u9810\u5831":{"\u6960\u897f\u5340-\u756a\u77f3\u69b4":{"ID":"L090","type":"\u4f5c\u7269\u5c08\u5340\u9810\u5831","NAME":"\u6960\u897f\u5340-\u756a\u77f3\u69b4","county":"\u81fa\u5357\u5e02","town":"\u6960\u897f\u5340","longitude":"120.47826","latitude":"23.17587"}}},"\u5357\u5316\u5340":{"\u9109\u93ae\u9810\u5831":{"\u81fa\u5357\u5e02\u5357\u5316\u5340":{"ID":"67000250","type":"\u9109\u93ae\u9810\u5831","NAME":"\u5357\u5316\u5340","county":"\u81fa\u5357\u5e02","town":"\u5357\u5316\u5340","longitude":"120.46970","latitude":"23.04476"}}},"\u5de6\u93ae\u5340":{"\u9109\u93ae\u9810\u5831":{"\u81fa\u5357\u5e02\u5de6\u93ae\u5340":{"ID":"67000260","type":"\u9109\u93ae\u9810\u5831","NAME":"\u5de6\u93ae\u5340","county":"\u81fa\u5357\u5e02","town":"\u5de6\u93ae\u5340","longitude":"120.40066","latitude":"23.05866"}}},"\u4ec1\u5fb7\u5340":{"\u9109\u93ae\u9810\u5831":{"\u81fa\u5357\u5e02\u4ec1\u5fb7\u5340":{"ID":"67000270","type":"\u9109\u93ae\u9810\u5831","NAME":"\u4ec1\u5fb7\u5340","county":"\u81fa\u5357\u5e02","town":"\u4ec1\u5fb7\u5340","longitude":"120.24359","latitude":"22.97417"}}},"\u6b78\u4ec1\u5340":{"\u9109\u93ae\u9810\u5831":{"\u81fa\u5357\u5e02\u6b78\u4ec1\u5340":{"ID":"67000280","type":"\u9109\u93ae\u9810\u5831","NAME":"\u6b78\u4ec1\u5340","county":"\u81fa\u5357\u5e02","town":"\u6b78\u4ec1\u5340","longitude":"120.28579","latitude":"22.96875"}}},"\u95dc\u5edf\u5340":{"\u9109\u93ae\u9810\u5831":{"\u81fa\u5357\u5e02\u95dc\u5edf\u5340":{"ID":"67000290","type":"\u9109\u93ae\u9810\u5831","NAME":"\u95dc\u5edf\u5340","county":"\u81fa\u5357\u5e02","town":"\u95dc\u5edf\u5340","longitude":"120.31971","latitude":"22.96458"}},"\u4f5c\u7269\u5c08\u5340\u9810\u5831":{"\u95dc\u5edf\u5340-\u9cf3\u68a8":{"ID":"L017","type":"\u4f5c\u7269\u5c08\u5340\u9810\u5831","NAME":"\u95dc\u5edf\u5340-\u9cf3\u68a8","county":"\u81fa\u5357\u5e02","town":"\u95dc\u5edf\u5340","longitude":"120.31971","latitude":"22.96458"}}},"\u9f8d\u5d0e\u5340":{"\u9109\u93ae\u9810\u5831":{"\u81fa\u5357\u5e02\u9f8d\u5d0e\u5340":{"ID":"67000300","type":"\u9109\u93ae\u9810\u5831","NAME":"\u9f8d\u5d0e\u5340","county":"\u81fa\u5357\u5e02","town":"\u9f8d\u5d0e\u5340","longitude":"120.35675","latitude":"22.96516"}}},"\u6c38\u5eb7\u5340":{"\u9109\u93ae\u9810\u5831":{"\u81fa\u5357\u5e02\u6c38\u5eb7\u5340":{"ID":"67000310","type":"\u9109\u93ae\u9810\u5831","NAME":"\u6c38\u5eb7\u5340","county":"\u81fa\u5357\u5e02","town":"\u6c38\u5eb7\u5340","longitude":"120.24888","latitude":"23.02786"}}},"\u6771\u5340":{"\u9109\u93ae\u9810\u5831":{"\u81fa\u5357\u5e02\u6771\u5340":{"ID":"67000320","type":"\u9109\u93ae\u9810\u5831","NAME":"\u6771\u5340","county":"\u81fa\u5357\u5e02","town":"\u6771\u5340","longitude":"120.21591","latitude":"22.98195"}}},"\u5357\u5340":{"\u9109\u93ae\u9810\u5831":{"\u81fa\u5357\u5e02\u5357\u5340":{"ID":"67000330","type":"\u9109\u93ae\u9810\u5831","NAME":"\u5357\u5340","county":"\u81fa\u5357\u5e02","town":"\u5357\u5340","longitude":"120.18056","latitude":"22.96294"}}},"\u5317\u5340":{"\u9109\u93ae\u9810\u5831":{"\u81fa\u5357\u5e02\u5317\u5340":{"ID":"67000340","type":"\u9109\u93ae\u9810\u5831","NAME":"\u5317\u5340","county":"\u81fa\u5357\u5e02","town":"\u5317\u5340","longitude":"120.19480","latitude":"23.00142"}},"\u4f5c\u7269\u5c08\u5340\u9810\u5831":{"\u5317\u9580\u5340-\u6d0b\u9999\u74dc":{"ID":"L112","type":"\u4f5c\u7269\u5c08\u5340\u9810\u5831","NAME":"\u5317\u9580\u5340-\u6d0b\u9999\u74dc","county":"\u81fa\u5357\u5e02","town":"\u5317\u5340","longitude":"120.19480","latitude":"23.00142"}}},"\u5b89\u5357\u5340":{"\u9109\u93ae\u9810\u5831":{"\u81fa\u5357\u5e02\u5b89\u5357\u5340":{"ID":"67000350","type":"\u9109\u93ae\u9810\u5831","NAME":"\u5b89\u5357\u5340","county":"\u81fa\u5357\u5e02","town":"\u5b89\u5357\u5340","longitude":"120.17661","latitude":"23.04896"}}},"\u5b89\u5e73\u5340":{"\u9109\u93ae\u9810\u5831":{"\u81fa\u5357\u5e02\u5b89\u5e73\u5340":{"ID":"67000360","type":"\u9109\u93ae\u9810\u5831","NAME":"\u5b89\u5e73\u5340","county":"\u81fa\u5357\u5e02","town":"\u5b89\u5e73\u5340","longitude":"120.16042","latitude":"22.99639"}}},"\u4e2d\u897f\u5340":{"\u9109\u93ae\u9810\u5831":{"\u81fa\u5357\u5e02\u4e2d\u897f\u5340":{"ID":"67000370","type":"\u9109\u93ae\u9810\u5831","NAME":"\u4e2d\u897f\u5340","county":"\u81fa\u5357\u5e02","town":"\u4e2d\u897f\u5340","longitude":"120.19760","latitude":"22.99404"}}}},"\u6843\u5712\u5e02":{"\u6843\u5712\u5340":{"\u9109\u93ae\u9810\u5831":{"\u6843\u5712\u5e02\u6843\u5712\u5340":{"ID":"68000010","type":"\u9109\u93ae\u9810\u5831","NAME":"\u6843\u5712\u5340","county":"\u6843\u5712\u5e02","town":"\u6843\u5712\u5340","longitude":"121.29345","latitude":"24.99572"}}},"\u4e2d\u58e2\u5340":{"\u9109\u93ae\u9810\u5831":{"\u6843\u5712\u5e02\u4e2d\u58e2\u5340":{"ID":"68000020","type":"\u9109\u93ae\u9810\u5831","NAME":"\u4e2d\u58e2\u5340","county":"\u6843\u5712\u5e02","town":"\u4e2d\u58e2\u5340","longitude":"121.21692","latitude":"24.96749"}}},"\u5927\u6eaa\u5340":{"\u9109\u93ae\u9810\u5831":{"\u6843\u5712\u5e02\u5927\u6eaa\u5340":{"ID":"68000030","type":"\u9109\u93ae\u9810\u5831","NAME":"\u5927\u6eaa\u5340","county":"\u6843\u5712\u5e02","town":"\u5927\u6eaa\u5340","longitude":"121.27891","latitude":"24.88229"}},"\u4f5c\u7269\u5c08\u5340\u9810\u5831":{"\u5927\u6eaa\u5340-\u7da0\u7af9\u7b4d":{"ID":"L077","type":"\u4f5c\u7269\u5c08\u5340\u9810\u5831","NAME":"\u5927\u6eaa\u5340-\u7da0\u7af9\u7b4d","county":"\u6843\u5712\u5e02","town":"\u5927\u6eaa\u5340","longitude":"121.27891","latitude":"24.88229"}}},"\u694a\u6885\u5340":{"\u9109\u93ae\u9810\u5831":{"\u6843\u5712\u5e02\u694a\u6885\u5340":{"ID":"68000040","type":"\u9109\u93ae\u9810\u5831","NAME":"\u694a\u6885\u5340","county":"\u6843\u5712\u5e02","town":"\u694a\u6885\u5340","longitude":"121.13764","latitude":"24.90937"}},"\u4f5c\u7269\u5c08\u5340\u9810\u5831":{"\u8336\u696d\u6539\u826f\u5834-\u672c\u5834":{"ID":"M008","type":"\u4f5c\u7269\u5c08\u5340\u9810\u5831","NAME":"\u8336\u696d\u6539\u826f\u5834-\u672c\u5834","county":"\u6843\u5712\u5e02","town":"\u694a\u6885\u5340","longitude":"121.13764","latitude":"24.90937"}}},"\u8606\u7af9\u5340":{"\u9109\u93ae\u9810\u5831":{"\u6843\u5712\u5e02\u8606\u7af9\u5340":{"ID":"68000050","type":"\u9109\u93ae\u9810\u5831","NAME":"\u8606\u7af9\u5340","county":"\u6843\u5712\u5e02","town":"\u8606\u7af9\u5340","longitude":"121.28705","latitude":"25.04875"}}},"\u5927\u5712\u5340":{"\u9109\u93ae\u9810\u5831":{"\u6843\u5712\u5e02\u5927\u5712\u5340":{"ID":"68000060","type":"\u9109\u93ae\u9810\u5831","NAME":"\u5927\u5712\u5340","county":"\u6843\u5712\u5e02","town":"\u5927\u5712\u5340","longitude":"121.18725","latitude":"25.06570"}},"\u4f5c\u7269\u5c08\u5340\u9810\u5831":{"\u5927\u5712\u5340-\u4e73\u725b":{"ID":"P003","type":"\u4f5c\u7269\u5c08\u5340\u9810\u5831","NAME":"\u5927\u5712\u5340-\u4e73\u725b","county":"\u6843\u5712\u5e02","town":"\u5927\u5712\u5340","longitude":"121.18725","latitude":"25.06570"}}},"\u9f9c\u5c71\u5340":{"\u9109\u93ae\u9810\u5831":{"\u6843\u5712\u5e02\u9f9c\u5c71\u5340":{"ID":"68000070","type":"\u9109\u93ae\u9810\u5831","NAME":"\u9f9c\u5c71\u5340","county":"\u6843\u5712\u5e02","town":"\u9f9c\u5c71\u5340","longitude":"121.32969","latitude":"24.99433"}}},"\u516b\u5fb7\u5340":{"\u9109\u93ae\u9810\u5831":{"\u6843\u5712\u5e02\u516b\u5fb7\u5340":{"ID":"68000080","type":"\u9109\u93ae\u9810\u5831","NAME":"\u516b\u5fb7\u5340","county":"\u6843\u5712\u5e02","town":"\u516b\u5fb7\u5340","longitude":"121.27639","latitude":"24.93072"}},"\u4f5c\u7269\u5c08\u5340\u9810\u5831":{"\u516b\u5fb7\u5340-\u8304\u660e\u91cc\u8449\u83dc\u985e":{"ID":"L064","type":"\u4f5c\u7269\u5c08\u5340\u9810\u5831","NAME":"\u516b\u5fb7\u5340-\u8304\u660e\u91cc\u8449\u83dc\u985e","county":"\u6843\u5712\u5e02","town":"\u516b\u5fb7\u5340","longitude":"121.27639","latitude":"24.93072"},"\u516b\u5fb7\u5340-\u7af9\u5712\u91cc\u8449\u83dc\u985e":{"ID":"L065","type":"\u4f5c\u7269\u5c08\u5340\u9810\u5831","NAME":"\u516b\u5fb7\u5340-\u7af9\u5712\u91cc\u8449\u83dc\u985e","county":"\u6843\u5712\u5e02","town":"\u516b\u5fb7\u5340","longitude":"121.27639","latitude":"24.93072"}}},"\u9f8d\u6f6d\u5340":{"\u9109\u93ae\u9810\u5831":{"\u6843\u5712\u5e02\u9f8d\u6f6d\u5340":{"ID":"68000090","type":"\u9109\u93ae\u9810\u5831","NAME":"\u9f8d\u6f6d\u5340","county":"\u6843\u5712\u5e02","town":"\u9f8d\u6f6d\u5340","longitude":"121.20834","latitude":"24.86581"}}},"\u5e73\u93ae\u5340":{"\u9109\u93ae\u9810\u5831":{"\u6843\u5712\u5e02\u5e73\u93ae\u5340":{"ID":"68000100","type":"\u9109\u93ae\u9810\u5831","NAME":"\u5e73\u93ae\u5340","county":"\u6843\u5712\u5e02","town":"\u5e73\u93ae\u5340","longitude":"121.21000","latitude":"24.94738"}}},"\u65b0\u5c4b\u5340":{"\u9109\u93ae\u9810\u5831":{"\u6843\u5712\u5e02\u65b0\u5c4b\u5340":{"ID":"68000110","type":"\u9109\u93ae\u9810\u5831","NAME":"\u65b0\u5c4b\u5340","county":"\u6843\u5712\u5e02","town":"\u65b0\u5c4b\u5340","longitude":"121.09732","latitude":"24.97433"}},"\u4f5c\u7269\u5c08\u5340\u9810\u5831":{"\u65b0\u5c4b\u5340-\u6c34\u7a3b":{"ID":"L103","type":"\u4f5c\u7269\u5c08\u5340\u9810\u5831","NAME":"\u65b0\u5c4b\u5340-\u6c34\u7a3b","county":"\u6843\u5712\u5e02","town":"\u65b0\u5c4b\u5340","longitude":"121.09732","latitude":"24.97433"},"\u6843\u5712\u5340\u8fb2\u696d\u6539\u826f\u5834-\u672c\u5834":{"ID":"M001","type":"\u4f5c\u7269\u5c08\u5340\u9810\u5831","NAME":"\u6843\u5712\u5340\u8fb2\u696d\u6539\u826f\u5834-\u672c\u5834","county":"\u6843\u5712\u5e02","town":"\u65b0\u5c4b\u5340","longitude":"121.09732","latitude":"24.97433"}}},"\u89c0\u97f3\u5340":{"\u9109\u93ae\u9810\u5831":{"\u6843\u5712\u5e02\u89c0\u97f3\u5340":{"ID":"68000120","type":"\u9109\u93ae\u9810\u5831","NAME":"\u89c0\u97f3\u5340","county":"\u6843\u5712\u5e02","town":"\u89c0\u97f3\u5340","longitude":"121.07365","latitude":"25.03820"}}},"\u5fa9\u8208\u5340":{"\u9109\u93ae\u9810\u5831":{"\u6843\u5712\u5e02\u5fa9\u8208\u5340":{"ID":"68000130","type":"\u9109\u93ae\u9810\u5831","NAME":"\u5fa9\u8208\u5340","county":"\u6843\u5712\u5e02","town":"\u5fa9\u8208\u5340","longitude":"121.34341","latitude":"24.82034"}},"\u4f5c\u7269\u5c08\u5340\u9810\u5831":{"\u5fa9\u8208\u5340-\u6c34\u871c\u6843":{"ID":"L078","type":"\u4f5c\u7269\u5c08\u5340\u9810\u5831","NAME":"\u5fa9\u8208\u5340-\u6c34\u871c\u6843","county":"\u6843\u5712\u5e02","town":"\u5fa9\u8208\u5340","longitude":"121.34341","latitude":"24.82034"}}}}}